abk_bahnhof,Name Haltestelle,lat,lon
BNBS,Bern Bümpliz Süd,46.93748748,7.395237952
BLB,Blankenburg,46.5411,7.385320005
BNWM,Bern Weyermannshaus,46.94732526,7.410928731
FBBF,"Fraubrunnen, Bahnhof",47.08652129,7.522734742
ZWEI,Zweilütschinen,46.6327,7.899699998
GLF,Gerlafingen,47.17056295,7.56528939
SOAD,Solothurn Allmend,47.2088863,7.521427053
MRT,Murten/Morat,46.92534669,7.115282647
LYSM,Lyss Murgeliweg,47.07209639,7.322218252
SCAU,Schadau,46.74692408,7.637653554
MUCO,Münchenwiler-Courgevaux,46.9109,7.116229995
GMMV,Gümmenen Viadukt,46.9338383,7.247887886
MOUW,Moosseedorf Unterwerk,47.01630747,7.482151561
LGXB,"Lugano, Autosilo Balestra",46.0075229,8.953475777
BNEG,"Bern, Egghölzli",46.93676,7.4768
TEN,Tenero,46.17746746,8.850226185
BNWY,Bern Wylerpark,46.96163395,7.445569469
JKLM,Bern JKLM,46.94824289,7.428894694
SAAN,Saanen,46.48857,7.260269998
LG,Lugano,46.00550055,8.946995309
BN,Bern,46.94883229,7.43913089
SCHB,Schönbühl SBB,47.01894217,7.498927865
BNAS,Bern Europaplatz,46.94420983,7.406117555
MEZ,Mezzovico,46.09427596,8.928590305
LGUS,Löchligut Süd (Abzw),46.97017124,7.470065687
HABF,"Hasle-Rüegsau, Bahnhof",47.01598477,7.65620541
ISLI,Isleten-Isenthal,46.91992061,8.595755351
BELD,Bellinzona Sud,46.18902,9.023449996
RUBM,"Rüegsbach, Britternmatte",47.05659128,7.698277537
BRZS,Brienz (See),46.7537553,8.038373935
BIOP,"Biel/Bienne, Orpundplatz",47.14370129,7.275325846
KIEZ,"Kirchberg BE, Einkaufszentrum",47.08695306,7.583322829
KIBS,"Kirchberg BE, Bütikofenstrasse",47.08650709,7.587417304
SOAS,Solothurn [Gleis 21],47.20463926,7.543489663
BRZ,Brienz,46.75484374,8.03894633
HEWH,"Heimisbach, Wagnershaus",47.01056008,7.753630672
VERI,La Verrerie,46.58752,6.924880007
KZUW,Kerzers Unterwerk,46.97501094,7.191430987
BISW,Biel/Bienne Stellwerk,47.13226744,7.240326812
GIVD,Givisiez dépôt,46.81666029,7.120066174
RHRP,"Röthenbach b. H., Rest. Post",47.20366265,7.683692764
DAE,Därligen,46.65976435,7.814737354
WYPO,"Wyssachen, Dorf",47.0781165,7.828870349
TBTB,"Trub, Twärenbrücke",46.93331862,7.864905394
AND,Andermatt,46.63689009,8.593280417
ERNA,Erstfeld Nord (Abzw),46.82611328,8.647665806
HBTS,Hauenstein Süd (Spw),47.39470989,7.907288583
BDBT,"Burgdorf, Bleichimatt",47.06894875,7.600902518
PALG,Palagnedra,46.16119,8.63094
TACJ,Tavannes [voie étroite],47.22015299,7.201883005
HBK,Hindelbank,47.04956376,7.545410601
GRIN,Grindelwald,46.62436,8.033310005
ERST,"Eriswil, Station",47.0800189,7.850808758
CO,Cortébert,47.18933715,7.107309204
SEVA,Sévaz (embr),46.83754852,6.863040865
OHTS,Ob.Hauensteintunnel Portal Süd,47.31475037,7.702148726
SIBF,"Signau, Bahnhof",46.92013169,7.725991352
LUEL,Lütschental,46.63709999,7.948989998
SKKM,Sisikon km,46.94851522,8.620845281
BIAV,Biasca Ovest,46.35167748,8.958825476
BRZD,Brienz Dorf,46.75400862,8.029463511
GOEB,"Göschenen, Bahnhof",46.66598297,8.58838143
TBLS,"Trub, Längengrund Säge",46.93155347,7.860597403
FRNO,Fribourg Nord,46.81170853,7.153602268
RO,Rodi-Fiesso,46.49025148,8.740162465
MUNC,Münchringen,47.04490001,7.520546265
FINS,Finsterhennen,47.02982,7.178849996
MOGS,Molincero Galleria Sud,46.07776204,8.924552328
MATE,Matten i.S.,46.49371,7.421639998
ASOS,"Aareschlucht, Ost",46.71208352,8.21637923
HAEO,Hägendorf Oberbau,47.32583351,7.828761118
TBUF,"Trub, Unterfeld",46.93621594,7.871888661
LNKH,"Langnau i.E., Kreuzstrasse",46.94134768,7.79476828
LNFR,"Langnau i.E., Fansrütistrasse",46.94265275,7.791611572
FLUW,Flüelen Unterwerk,46.89533399,8.624755315
BDGN,"Burgdorf, Gyrischachen",47.06298418,7.63076591
BDBL,"Burgdorf, Blattnerweg",47.0609219,7.609434352
IOE,Interlaken Brünig (Gleisende),46.69036945,7.867281704
GRY,Gruyères,46.58260999,7.073250002
SOVS,"Solothurn, Vorstadt",47.20453633,7.537787736
ERSH,"Eriswil, Schulhaus",47.07765308,7.850843263
TSOB,"Trubschachen, Oelibrücke",46.92597549,7.8509424
CRCV,"Crémines, centre du village",47.28330792,7.439617827
BIRT,Birchiwaldtunnel,47.06348843,7.556721855
LES,Lessoc,46.50738,7.052550004
SPBB,"Schüpbach, Bruuchbüel",46.93855774,7.752067003
GOGB,"Gohl, Grindlenbach",46.94395823,7.816667661
GOAE,"Gohl, Aeugsteren",46.99148207,7.832159242
WRLI,"Wangenried, Linde",47.21949901,7.653743368
LOLU,Lohn-Lüterkofen,47.16299,7.526959993
DKO,Däniken Ost,47.35847858,7.98351887
RIHO,Riedholz,47.23102999,7.572680005
LUGO,Lützelflüh-Goldbach,47.00502149,7.68227425
BIW,Biel/Bienne West,47.1337457,7.239342709
POLS,Pollegio binario di sorpasso,46.3593937,8.951090864
MBRU,"Meinisberg, Rütti",47.1634343,7.357889941
PISI,"Pieterlen, Schlössli",47.17401189,7.325833069
FHSH,"Fankhaus (Trub), Schnidershus",46.96002607,7.899710732
SPEB,"Schüpbach, Emmenbrücke",46.92901969,7.736320176
GOGM,"Gohl, Gmünden",46.98298945,7.827207501
BVIS,Bellavista,45.91111407,9.001139947
AEF,Aefligen,47.09559351,7.559253218
LTHT,Langenthaltunnel NBS,47.20739586,7.740492853
EIGL,Eigergletscher,46.57480802,7.974075839
WUE,Wünnewil,46.87186094,7.280654146
OM,Obermatt,46.95096642,7.753813107
LHE,La Heutte,47.18949181,7.225395781
GIUO,Giubiasco Ovest,46.16675394,8.991275477
GBA,Griesbach,47.0443222,7.742085102
CDST,"Cadenazzo, Stazione",46.15241003,8.941656163
HERG,"Heimenhausen, Riedgasse",47.21090559,7.699130343
LYBS,"Lyssach, Bernstrasse (Ikea)",47.07461694,7.57170326
SKBF,"Sisikon, Bahnhof",46.94913609,8.620832668
HA,Hasle-Rüegsau,47.01626279,7.65532242
FIL,Fillistorf,46.86589028,7.226901275
BOEN,Bönigen,46.68939425,7.898056187
ERBF,"Erstfeld, Bahnhof",46.82040157,8.650666531
LNSW,"Langnau i.E., Sonnweg",46.93819699,7.795522294
EGHO,"Eggiwil, Holzmatt",46.8848485,7.785827552
WAPO,"Walliswil b. Wangen, Post",47.23014147,7.680169264
LTHW,Langenthal West (Abzw),47.21288998,7.758249957
ZIE,St. Urban Ziegelei,47.2271987,7.836148952
SURB,St. Urban,47.23175055,7.835816965
CHRM,Wünnewil Chrummatt,46.88308131,7.305562439
PREL,Prêles,47.09273532,7.1307995
SCHG,Schlossberg (Signau),46.90715174,7.712204807
LOTZ,Lotzwil,47.18949368,7.788589052
SOAZ,"Solothurn, Amthausplatz",47.20811934,7.534058912
OBBS,"Oberburg, Bärenstrasse",47.03470502,7.63003353
FRZR,"Frutigen, Zrydsbrügg",46.56628548,7.656855877
ROME,Romont Est (racc),46.7021427,6.923889046
SADI,Sarè (dira),46.04757955,8.947242433
CAMT,Camedo transito,46.15428744,8.603068473
RTW,Riedtwil,47.14015788,7.693276012
WEFR,"Wengi b. Frutigen, Dorf",46.60767253,7.662386959
KDI,Kleindietwil,47.14630792,7.790974691
LNFH,"Langnau i.E., Friedhof",46.94524601,7.775774847
OZKR,"Oberönz, Kreuz",47.17947982,7.694254913
RHPO,"Röthenbach b. H., Post",47.20427398,7.68384074
LYKS,"Lyssach, Kernenriedstrasse",47.07040409,7.566571529
SNAG,Scharnageln,47.2631,7.700789997
BIG,Biglen,46.92461739,7.626702884
VAUL,Vaulruz-Nord,46.62397,6.991410001
STAT,Stutzeck-Axenbergtunnel,46.93278458,8.623966421
GRRI,Grafenried,47.08012,7.511609997
LAED,Lädeli,46.78161364,7.609031671
KIWH,"Kirchberg BE, Wydenhof",47.10095633,7.569779151
BDSM,"Burgdorf, Schlossmatt",47.05167139,7.623460778
OEN,Oensingen,47.28503511,7.709870322
DUED,Düdingen,46.85105246,7.18975321
CHAV,Chavannes,47.08263807,7.132058527
RZO,Ranzo-S. Abbondio,46.11699781,8.776537709
MAG,Magadino-Vira,46.14531572,8.850189043
CHSM,Chiasso Smistamento,45.83650502,8.999077349
LTNH,"Langenthal, Neuhof",47.2033231,7.79647008
SEBP,"Seeberg BE, Stalderhof",47.15454682,7.66829132
LNHU,"Langnau i.E., Hübeli",46.94490243,7.773303367
ZOZE,"Zollbrück, Zentrum",46.97165702,7.749933726
ZOFS,"Zollbrück, Frittenbachstrasse",46.97412251,7.746294546
CD,Cadenazzo,46.15261999,8.9416989
KABF,"Kandersteg, Bahnhof",46.49539732,7.67181138
STPN,St. Petersinsel Nord,47.06831772,7.135613814
MIBA,"Mitholz, Balmhorn",46.52729006,7.674633115
MAOG,Galleria Maroggia,45.94153893,8.967369515
BIBU,"Biel/Bienne, Bubenbergstrasse",47.14156855,7.251247186
HWFR,"Huttwil, Friedhof",47.11169165,7.85546596
LENSS,Lengnau Schutzstrecke,47.18568342,7.380971437
LTBL,"Langenthal, Bleichestrasse",47.20797795,7.786152833
LTID,"Langenthal, Industrie Nord",47.22666799,7.786498581
LTGA,"Langenthal, Gaswerkstrasse",47.22383377,7.780776336
OHDB,Oberhard BE,47.03423434,7.525915587
TAVS,Taverne-Torricella Sud (bif),46.05245628,8.928372608
LTRM,"Langenthal, Rumimatte",47.20118288,7.784498638
LTEW,"Langenthal, Elzweg",47.21392545,7.797266959
LAVSS,Lavorgo Schutzstrecke,46.45193999,8.830785967
UHDB,Unterhard BE,47.03527095,7.525913822
KIER,"Kirchberg BE, Elsässer",47.07931608,7.590531343
WENE,Wengi-Ey (Abzw),46.61247647,7.674244183
CAME,Camedo,46.15487,8.611000003
BDKO,"Burgdorf, Kornhaus",47.05818602,7.627629297
LTHA,Langenthal [Gleis 4-5],47.21763429,7.784499249
HELO,"Heimiswil, Löwen",47.05974939,7.654263141
HSDO,"Hasle b.B., Dorf",47.01597086,7.644197519
BDZI,"Burgdorf, Ziegelei",47.04674121,7.63489272
BDPO,"Burgdorf, Parkhaus Oberstadt",47.05451143,7.624944614
PTIO,Ponte Ticino Ovest (c bin),46.16704743,8.907562633
BOLI,Bolligen,46.96954,7.497420002
SOLD,Solduno,46.16953,8.777649996
BTH,Balsthal,47.31319314,7.694668708
RUB,Rubigen,46.89916974,7.54536836
KF,Konolfingen,46.88070242,7.621367027
SCSC,Pian Scairolo Sottocentrale,45.97978312,8.927310102
PIBF,"Pieterlen, Bahnhof",47.17137993,7.339266351
SIFO,Sigirino finestra ouvest,46.08022045,8.92568373
BDFW,Burgdorf West (Abzw),47.06111773,7.616313266
SIGN,Signau,46.91963508,7.72546317
SF,Seftigen,46.78684669,7.54028893
BWA,Burgistein,46.78943768,7.521226725
VG,Villars-sur-Glâne,46.78982982,7.116385624
LTHI,Langenthal Industriegleis,47.21515385,7.780773702
GIUE,Giubiasco Est (c bin),46.16659999,9.001309994
LTHS,Langenthal Süd,47.20533808,7.780192231
LTTK,"Langenthal, Tell/Kantonalbank",47.21205006,7.789954569
HWSZ,Huttwil Sportzentrum,47.11091449,7.829937504
INDO,"Inkwil, Dorf",47.19969251,7.672351348
NZHI,"Niederönz, Schürchhaus",47.18623285,7.69518428
HWBF,"Huttwil, Bahnhof",47.11437166,7.84299558
NS,Niederscherli,46.88643698,7.388070122
SCBG,Schwarzenburg,46.81910978,7.342561555
AEOS,"Aeschi SO, Ost",47.18145844,7.673182251
BINA,"Biel/Bienne, Nidaugasse",47.1388732,7.24768428
TA,Tavannes,47.21984466,7.20164539
WYGR,"Wynigen, Grüttermatt",47.10808094,7.667447229
MADI,Madiswil,47.16704915,7.795793231
SWG,Sumiswald-Grünen,47.02544335,7.737153257
GUBU,Gutenburg,47.18179093,7.793291295
AEDO,"Aeschi SO, Dorf",47.18052255,7.664378725
THO,Thörishaus Station,46.90462574,7.357028805
GH,Grosshöchstetten,46.90463136,7.634918883
SAGG,"Safnern, Gürweg",47.14609365,7.318588491
GRO,Grolley,46.83197884,7.066052544
DOM,Domdidier,46.86851206,7.011382575
MEUF,"Melchnau, Unterdorf",47.18782232,7.848616642
RUDS,Rudswil,47.10210853,7.604150835
ERUD,"Ersigen, Unterdorf",47.09717979,7.597404797
ERPO,"Ersigen, Gemeindehaus",47.09438437,7.595934543
LOUD,"Lotzwil, Unterdorf",47.19818033,7.786920701
KALB,"Kaltacker, Leumberg",47.07666308,7.692488837
HEKI,"Heimiswil, Kipf",47.05554068,7.648876274
BIA,Biasca,46.35198415,8.974179217
BIBT,Biel/Bienne [Gleis 11/voie 11],47.13232,7.24256
BRUE,Brünig-Hasliberg,46.75776257,8.138654061
BRG,Bargen BE,47.04016167,7.261180411
SOUW,"Solothurn, Ulmenweg",47.20768286,7.516239199
BUWY,"Bützberg, Wyssenried",47.2071008,7.732835679
MEFA,"Melchnau, Fabrik",47.18256948,7.851096345
GLNC,Rue-Gillarens,46.59443112,6.835644477
ZGRD,Zauggenried,47.07407404,7.539246997
LAEN,"Oberhofen a. T., Längenschach.",46.72589441,7.678939378
OHDS,Oberhofen am Thunersee,46.73036166,7.667485952
ZAE,Zäziwil,46.89975231,7.662882111
ADE,"Adelboden, Post",46.49369059,7.560295416
FRTF,"Frutigen, Tellenfeld",46.58082333,7.65159146
STOI,Stöckli,46.51681,7.388399994
SUSZ,"Subingen, Schulzentrum",47.18878196,7.61679421
NB,Niederbipp,47.27040173,7.694818067
HUEN,Hüniken,47.18489714,7.638247349
DERP,"Derendingen, Ritterplatz",47.20055505,7.58548925
AARW,Aarwangen,47.24087529,7.769619205
FADO,"Faulensee, Dorf",46.675425,7.701442662
GWPO,"Grasswil, Post",47.14607593,7.667160824
BITL,"Biel/Bienne, Taubenloch",47.15338609,7.267384599
ETDO,"Etziken, Dorf",47.18733114,7.645394472
KGBI,"Kandergrund, Bifige",46.56247752,7.658327339
THOB,Thörishaus Brücke,46.89554854,7.351696514
STU,Studen BE,47.1104381,7.30174956
LENK,Lenk im Simmental,46.45858,7.443519994
ZOO,Crémines-Zoo,47.27241982,7.456783798
CREM,Crémines,47.28560833,7.435477309
BROV,Broc-Village,46.60405,7.098739999
OD,Oberdiessbach,46.83926254,7.617809345
SIV,Siviriez,46.65926659,6.885348507
BUSB,"Busswil BE, Bahnhof",47.09908738,7.319471902
MUEB,Münchenbuchsee,47.02137579,7.45194767
DON,Dotzigen,47.11867177,7.337754285
LYN,Lyss Nord,47.07834537,7.305450488
KIRG,"Kirchberg BE, Rosenweg",47.08818522,7.590437815
KZ,Kerzers,46.97507896,7.192810168
CRFR,Cressier FR,46.90018,7.149719998
GHZ,Grauholztunnel,47.00730604,7.496753949
BNAE,Bern Depot Aebimatte,46.95109091,7.425522571
LNGP,"Langnau i.E., Gerbeplatz",46.93780983,7.789806869
BUBA,"Büren an der Aare, Bahnhof",47.13808589,7.370724511
BNO,Bern Ost (Spw),46.95300773,7.441417344
RCH,Riedbach,46.9411543,7.334049965
STUA,Studen Auto,47.10764863,7.306294458
ROM,Romont FR,46.69350826,6.91181142
LATS,Längenschachen (See),46.72544357,7.679447544
THAB,Thun (Abzw),46.76013195,7.621222991
ZWGE,Zweisimmen Gleisende,46.55072446,7.37563724
EGLI,Eggli,47.36343886,9.435041478
WANS,Wanzwil Süd (Abzw),47.19921656,7.705210262
WAO,Wanzwil Ost (Abzw),47.2009727,7.711976177
WAPT,"Wattwil, Post",47.30279568,9.087306197
SGBP,"St. Gallen, Boppartshof",47.40310232,9.336536275
KURZ,Kurzrickenbach Seepark,47.64308084,9.196359371
SA,Sargans,47.04482351,9.446260475
SGKG,"St. Gallen, Kirche St. Georgen",47.41640775,9.382050861
CLSS,Colombier sous-station,46.55080937,6.460865222
LTO,Lausanne-Triage Ouest,46.52415667,6.523572184
CHVI,Chavornay-Industrie,46.71332957,6.559448846
ROCS,Roche VD sous-station,46.36453067,6.924473092
ZUEH,"Zürich, Hegibachplatz",47.36169015,8.560622542
ZUEB,"Zürich, Balgrist",47.35457805,8.57502031
CHCH,Château-de-Chillon (lac),46.41288661,6.92920315
NYCG,Nyon (lac),46.38229168,6.24356065
STVI,St-Triphon-Village,46.30207,6.975789994
GIBU,Gilly-Bursinel,46.44506816,6.306363256
HUEW,Hüntwangen-Wil,47.5812689,8.51284805
VTZ,Vitznau,47.00935915,8.482382715
RODN,Rochers-de-Naye,46.43167999,6.979019997
TOV,Toveyre,46.4279,6.928469998
SIR,Sirnach,47.4619971,9.000474259
LSA,La Sarraz,46.65878497,6.517361005
TREL,Trélex,46.41371999,6.206420004
STCE,St-Cergue,46.44861,6.160360001
PLAN,Les Plantaz,46.39115999,6.229030001
REIT,Reichenau-Tamins,46.82366,9.412549995
WTOE,Winterthur Töss,47.48980638,8.709309943
KRA,Kradolf,47.52472244,9.20157506
RMZ,Rämismühle-Zell,47.44153899,8.819137325
ECL,Eclépens,46.65719066,6.552421123
HD,Hallwil,47.32863876,8.175949455
BGVL,Brugg AG VL,47.47489803,8.205051102
CHAJ,Chardonne-Jongny,46.47701242,6.833060311
TECG,Territet (lac),46.42570143,6.922317777
ROCG,Rolle (lac),46.45498965,6.337281314
BEMG,Betten Talstation,46.37115787,8.076519853
CFO,La Chaux-de-Fonds Les Forges,47.09133532,6.81278026
BLHW,"Bütschwil, Hofwiesen",47.36347811,9.073241574
LGSL,"Lichtensteig, St. Loreto",47.33012779,9.084710732
RONW,"Roggliswil, Niederwil",47.21453167,7.88862246
YND,Yvonand,46.80087549,6.746687333
DE,Domat/Ems,46.83314,9.453160003
DAM,Davos Monstein,46.71591,9.760009997
WEIA,Winterthur Eichliacker (Vzw),47.48810781,8.71370103
HDKN,Hendschiken Nord (Abzw),47.3911715,8.205521267
SURS,"St. Urban, Sonnhalden",47.22263895,7.849252953
SGSL,"St. Gallen, St.Leonhard",47.42083387,9.367034236
SBSW,"Strengelbach, Schürliweg",47.2856977,7.93268471
GRVT,Tunnel de Grandvaux,46.49763634,6.727131699
BRGG,Brunegg,47.4204148,8.221690085
RENO,Renens VD Ouest (bif),46.54078829,6.572087007
GLCO,Glion-Collège,46.43478033,6.928736778
GROB,"Grengiols, Oberdeisch",46.38065248,8.104668941
MELN,Mellikon,47.56848468,8.352510715
FCKH,Frick Hübeli,47.501546,8.02326883
ECTS,Les Echets,46.43218,6.944890006
LEI,Leibstadt,47.5932392,8.16555706
ZVBO,Zürich Vorbahnhof Ost,47.38300058,8.520567758
SILS,Sils im Domleschg (Abzw),46.70028,9.458599996
ROBO,Rotenboden,45.98446753,7.765370346
VUAP,La Vuarpillière,46.39891999,6.217250002
SAOS,Sargans Ost,47.0432061,9.448949793
UWWI,"Unterwasser, Wäldli",47.19786065,9.318477775
SCRN,Scheuren,47.3226,8.659549997
AU,Au ZH,47.24681794,8.643725909
ZWIP,Zürich Wipkingen,47.39303887,8.529382371
ZGV,Zürich HB Cargo GV,47.38438859,8.514426444
TOEM,Tössmühle,47.47382135,8.70621045
ARN,Arnegg,47.44200165,9.252025002
BAE,Bäch SZ,47.20098164,8.727174269
MSET,Tunnel Bahnhof Museumstrasse,47.37937303,8.53928939
LIEB,Liebegg,47.40812352,9.368919672
HGTN,Hirschengrabentunnel II,47.36959241,8.547858636
BGH,Burghalden,47.2086739,8.692719077
ULKI,"Ulrichen, Kirche",46.50655868,8.305036633
ETKA,"Ebnat, Kappel",47.26689504,9.118777105
ETGB,"Ebnat, Gieselbach",47.25948533,9.135115665
ECLT,Tunnel d'Eclépens (Mormont),46.6587997,6.551884353
SLN,Sisseln,47.54563661,7.993095037
WGAT,Windgällentunnel,46.77111113,8.673231969
MGPG,Galleria Precassino-Meggiagra,46.1430149,8.954586869
MGTS,Mittalgrabentunnel Süd,46.32306176,7.757270422
HEIM,Heimbach (Spw),47.04730574,8.299501699
AVRC,Avry,46.78509123,7.079434004
ESW,Einspurtunnel Wöschnau,47.38284793,8.021504189
STSA,St-Saphorin,46.47259371,6.797033689
PFAD,"Pfaffnau, Dorfplatz",47.22884502,7.899346148
LVE,Le Verney (embr),46.48800085,6.763068274
EWUW,Etzwilen Unterwerk,47.66176288,8.818755789
WIKA,"Wikon, Hotel Adelboden",47.26847906,7.961888275
ROPO,"Roggliswil, Post",47.21084765,7.885317844
CR,Croy-Romainmôtier,46.69671232,6.478116269
LON,Lonay-Préverenges,46.52313563,6.519544737
SCLC,St-Cergue Les Cheseaux,46.44688,6.147279994
GIVI,Givrins,46.42885,6.205220005
CRTT,Tunnel des Crêtes,46.44642229,6.883142768
VISB,"Visp, Schwimmbad",46.29754044,7.872738826
TRUN,Trun,46.74254,8.990440002
DENA,Denges A (bif),46.52955079,6.541811254
ARCA,Archy A (bif),46.54349359,6.563771693
DAYO,Le Day Ouest,46.71737322,6.400491455
DTF,Dietfurt,47.34455188,9.07832029
BEDI,Bernina Diavolezza,46.44179,9.982290005
SL,St-Léonard,46.25148858,7.419568233
TCOE,Tunnel des Combes Est,46.72562165,6.453269953
BALL,Ballens,46.55226,6.374459998
ONBP,Onnens-Bonvillars PMP,46.8311373,6.684652022
AISN,Airolo Schaltposten,46.52603607,8.593400387
WAKW,Wassen Kraftwerk,46.71568209,8.610224723
FASS,Faido Sottocentrale,46.48756789,8.778452374
BDON,"Lausanne, Bourdonnette",46.52326604,6.589805203
KALP,Kalpetran,46.2140689,7.836961092
DIAB,Les Diablerets,46.35116,7.155020005
LAFA,La Faverge,46.35492999,7.147120003
ASKO,Amsteg Kabelstollen Ost,46.77514393,8.696919437
MSPI,Münsterlingen Spital,47.6320461,9.236116872
NGKF,"Niedergesteln, Kiesfang",46.31187878,7.781033406
LUISS,Luins Section de protection,46.43156086,6.28114433
BEAC,Beauregard,46.67342093,6.516003567
WM,Wimmis,46.6757222,7.635597452
NAEO,Nätschen Ost,46.64310335,8.62019505
DKDF,Däniken (Df),47.35638682,7.97876607
SIGG,Siggere,47.2430375,7.605034917
CHIC,Chiasso Confine,45.83083705,9.034090973
SED,Sedrun,46.68106715,8.769780989
VVPL,Vevey (funi),46.46863496,6.836005384
PTM,Punt Muragl,46.50968,9.881189995
RU,Rupperswil,47.40329025,8.126956365
EG,Egerkingen,47.31486484,7.798966473
ISEL,Iseltwald (See),46.71182156,7.962551863
BRLA,Breitlauenen,46.65984443,7.895584076
PLP,Planalp,46.77237313,8.019844936
OLBW,Olten Borntunnel West,47.3180321,7.893581221
GBGW,Gotthardbasistunnel West,46.37225907,8.927295613
FROS,Friedental Ostportal,47.06166968,8.292993905
DIPE,"Dieni, Pendicularas",46.66878504,8.744184617
CELS,Celerina Staz,46.50965,9.865120001
NGWM,"Niedergesteln, Wannumoos",46.31167495,7.785939186
VT,Villeret,47.16020368,7.019675173
EBLI,Ebligen,46.75262416,7.990036989
BRZW,Brienz West,46.75731228,8.020376643
ETZ,Etziken,47.18719914,7.643757884
BUSN,Busswil Nord,47.12405284,7.292518345
HBGO,Herzogenbuchsee Gishübeltu Ost,47.18810886,7.700919641
BGLP,"Bürglen UR, Dorf",46.87542219,8.66346401
PUN,Pully-Nord,46.51468146,6.657987607
TSTW,Thunstetten West,47.20763099,7.740005803
FUSP,Fürten (Spw),46.53994839,7.670599849
SCOO,Schönenwerd SO Ost (Spw),47.37785,8.008899995
FMUE,Fluhmühle (Abzw),47.05660071,8.286847621
BEAI,Bel-Air LEB,46.57868,6.60553
FFWE,Frauenfeld West,47.56759819,8.876236434
DISL,Disla Fehlerprofil,46.71087617,8.871072502
OE,Oey-Diemtigen,46.65988777,7.579152129
OBB,Oberburg,47.03960954,7.629342867
WBOL,Wangen bei Olten,47.34140067,7.86836052
DK,Däniken SO,47.35639009,7.978771345
TSCH,Trubschachen,46.92169996,7.846141964
TOUV,La Tour-de-Trême,46.60853,7.064240006
LSO,Lausanne-Ouchy (lac),46.50566202,6.62686177
MSCH,Münsterlingen-Scherzingen,47.63342664,9.227011765
RCY,Le Rocheray,46.62445724,6.25026366
TOL,Tolochenaz,46.4968401,6.475008979
BEMM,Belmont-sur-Montreux,46.44204,6.906119995
ENN,Enney,46.5654,7.085239996
FRUW,Frutigen Unterwerk,46.57964982,7.648938538
LSCG,Lausanne (Centre d'expl),46.51706431,6.631238534
TUIE,Tuilerie,46.5928,6.414219995
COSS01,Cossonay-Ville,46.61204442,6.509898866
FOU,Founex,46.32878361,6.194383369
EX,Exergillod,46.33711,7.038480004
BOT,Bottighofen,47.64070724,9.213104114
LAPU,La Punt Chamues-ch,46.57867,9.923329998
STGE,St. German (Abzw),46.30616549,7.844094896
VILN,Villnachern Neumühli,47.47110418,8.159830085
RUAZ,La Ruaz,46.25308,7.007719999
CHDF,Chiasso Smistamento (Df),45.83652079,8.999078287
GRV,Grandvaux,46.49694824,6.722650186
SEIN,Seon Industrieanlagen,47.3491593,8.150637828
ORIN,Orbe-Industrie (marchandises),46.72091715,6.541495739
DER,Derendingen,47.20250515,7.582108983
MHZB,BZ Mitholz Ost (LBT),46.5133885,7.658272277
SZEG,Salzegg,46.58426475,7.975526265
GOTS,Gottardo Sud (c bin),46.56822192,8.598390474
DOUY,La Douay,46.05249796,7.148738409
LNTO,Neustadttunnel Ost (Vzw),47.04437204,8.310839475
CAMS,Camorino Sud,46.15060841,8.987777532
POZZ,Pozzo Negro (dira),46.37258343,8.925407278
MITH,Mitholz (Spw),46.51681488,7.657296591
RECH,Recherswil (NBS),47.15500701,7.610550696
MTRC,Matran PP,46.7893019,7.09723057
LSCH,Lausanne-Chauderon,46.52323,6.626059995
VERX,Vernex (diag),46.44025201,6.905171926
PT,Le Pont,46.66866749,6.324719892
UNDO,"Chavannes-R., UNIL-Chamberonne",46.52421736,6.584707287
BGW,Bremgarten West,47.34569057,8.337110912
IL,Illnau,47.40881919,8.722727521
FIBF,"Fiesch, Bahnhof",46.40622021,8.134451019
SGMW,"St. Gallen, Moosweiher",47.40945759,9.336868841
MOWG,Mörel Wassererfassung,46.35227869,8.040402373
PALP,Palézieux Pont,46.56103854,6.842446985
FERD,Ferden (Spw),46.40295255,7.737262651
CLIE,Clies,46.46776,6.854909997
CFG,La Chaux-de-Fonds-Grenier,47.09975182,6.833682795
SGFB,"St. Gallen, Fürstenlandbrücke",47.40790787,9.328225844
SS,Sursee,47.17079504,8.097893865
EGL,Eglisau,47.57237455,8.516558016
SLG,Sulgen,47.53880403,9.183694439
BOSS,Bossière,46.50974851,6.699321762
VEY,Veytaux-Chillon,46.4176212,6.927860782
NEBN,Nebikon Nord (Abzw),47.20347999,7.973309996
LSBL,Lausanne Bellerive,46.53889905,6.633949846
VESA,Versam-Safien,46.80738,9.310299995
TABR,Tavanasa-Breil/Brigels,46.75476,9.062429998
FF,Frauenfeld,47.5581634,8.896559673
LZBR,Luzern Brünig,47.05022,8.310859998
BUVC,"Bugnei, via Alpsu",46.68112511,8.787752239
GABU,"Gampel, Burketen",46.31251385,7.714839466
URD,Urdorf,47.39088334,8.434730698
KOL,Kollbrunn,47.4583242,8.774016936
WSEE,Winterthur Seen,47.48743542,8.766813491
WEBM,Weberei Matzingen,47.52728984,8.921956122
CHAN,Chantemerle-près-Blonay,46.46165,6.906540002
ACKS,Ackersand Süd,46.24022851,7.873001818
SURO,Surovas,46.48562999,9.905680006
ST,St-Triphon,46.278799,6.971895899
GTSX,Gütsch,47.0527726,8.296682297
REBR,Reiden Nord,47.24141825,7.968795418
LZTB,Luzern Tiefbahnhof,47.0497788,8.31078261
PALB,Palézieux Est (bif),46.54618183,6.843724903
ALPN,Alp Nouva,46.45383,9.936230005
MONB,Montebello Barriere,46.49158,9.898509995
BGWE,Brugg AG West,47.47709,8.204079997
BURA,"Buchs SG, Rathaus",47.16560048,9.47059289
VILZ,Visp Lonza,46.29470967,7.892662946
SCEN,Schwiedernen,46.16189156,7.794102505
REV,Reverolle,46.54042999,6.43097
DAG,Dagmersellen,47.21755794,7.979025922
LSLE,Lausanne-Flon LEB,46.52046743,6.630340604
BOWS,Boniswil Süd,47.315965,8.186779862
SEG,Segnas,46.69099747,8.82981824
CHXX,"Chur, Postautostation",46.8528884,9.527605973
CHBA,"Chur, Bahnhofplatz",46.8536012,9.530453799
WLBF,"Wattwil, Bahnhof",47.29945634,9.086793052
JTAL,Jakobstal,47.50828752,8.944089847
DFFQ,"Dietfurt, Feldeck",47.34842148,9.079183661
MOLY,"Lausanne, Montelly",46.52182199,6.613560377
SLSS,St-Léonard sous-station,46.25239206,7.422707676
STAW,Stalden West,46.23010366,7.864769795
SLSP,St-Léonard Section Protection,46.25935587,7.442820475
MOEL,Mörel,46.35620868,8.047140483
BITS,Bitsch,46.33605717,8.017223786
RARO,Raron Betriebszentrale Ost,46.30924668,7.832564732
DTGB,Dietikon Güterbahnhof,47.4148226,8.390330633
SGPG,"St. Gallen, Post St. Georgen",47.41826569,9.381243829
ASJH,"Alt St. Johann, Horb",47.18637255,9.267025498
SETS,Sedrun Entlüftungsstollen,46.66247707,8.773280807
LT,Lausanne-Triage,46.52715465,6.539296852
LSAL,Les Salines,46.25484,7.027639996
WSHE,Wallisellen Herti (Vzw),47.41312703,8.571800414
BRTW,Brüttenertunnel Ber. Winterthu,47.45356525,8.685933611
SARO,"Sargans, Rose",47.0510179,9.440577773
SAGU,"Sargans, Gutshof",47.05293394,9.44524405
OFPC,"Oftringen, Perry-Center",47.31170066,7.913510571
ARRE,"Arnegg, Restaurant Ilge",47.44227422,9.255329994
STG,Steg,47.35385246,8.932371769
GIB,Gibswil,47.3137201,8.915510559
ALHI,"Altbüron, Hiltbrunnen",47.17880423,7.881633857
DTLN,Dietlikon Nord (Vzw),47.42208696,8.620575461
RDSO,"Reiden, Sonne",47.24746027,7.97128583
SSMN,Sedrun SMF Nord,46.67097907,8.768409095
CRS,"Crans-s.-S., Grand-Place",46.30614754,7.467952929
EFG,Effingen,47.4765572,8.100683107
ET,"Ettingen, Bahnhof",47.48378,7.546009999
BLG,Baldegg,47.18568896,8.280231508
STOG,Stockgraben (Spw),46.35926044,7.759395203
BRIO,Brusio,46.25931,10.12525999
HGO,Horgen Oberdorf,47.25874981,8.589815821
ILZ,Ilanz,46.77535,9.207439997
RECE,Renens Centre d'Exploitation,46.53464446,6.583981942
VIMG,Visp MGB-bvz,46.29379306,7.88183148
LZSH,Luzern Steghof (Abzw),47.04146,8.309989998
OWT,Oberwinterthur,47.50792233,8.760389196
CELE,Celerina,46.51398,9.858440006
AFCS,"Acla da Fontauna, center sport",46.69973401,8.844596701
LSPD,Lausanne Poste directeur,46.51733741,6.626647351
CHBL,Château-de-Blonay,46.46835,6.891749997
BECA,Bernina Cambrena Blinklicht,46.41546,10.01154
FILE,Filet,46.36050709,8.052681445
COUP,"Courroux, Birse",47.36221408,7.372199293
GRES,Grésaley,46.6432527,6.642170167
NE,Neuchâtel,46.99672679,6.935701694
TRIB,Triboltingen,47.66289596,9.108760541
RBLL,RBL L-Gruppe,47.41608928,8.393731537
DOPP,Doppleschwand-Romoos,47.02825929,8.06764762
DT,Dietikon,47.40578381,8.404988188
TEBF,"Teufen AR, Bahnhof",47.39020179,9.389931399
PUIP,Puidoux Pont,46.50050493,6.777470507
PUIS,Puidoux-Chexbres sous-station,46.49014032,6.762006581
CHGN,Chigny,46.51601999,6.472250001
VIL,Villeneuve VD,46.39837151,6.927003108
SNGH,"Stein SG, Dorf",47.20034117,9.226620103
VUAR,Vuarennes,46.43912,6.910970002
STUW,Stein-Säckingen Unterwerk,47.54160999,7.966076304
GRSA,"Grossdietwil, Sandgruebe",47.17413673,7.883745419
LTP,Lausanne-Triage P1,46.52573288,6.528113039
NYD,Nyon Dépôt,46.38649459,6.237747573
SHAU,Siegershausen,47.610917,9.168260018
ZWIE,Zürich Wiedikon,47.37147723,8.52348544
ZOER,Zürich Oerlikon,47.41153004,8.54413991
GLZB,Glanzenberg,47.39887873,8.420441877
UST,Uster,47.35036901,8.718709159
HURU,Hürlistein Unterwerk,47.42260356,8.665273878
TRLI,Zürich Triemli,47.36499025,8.495379934
ESSL,Esslingen,47.28786,8.709690001
ZUM,Zumikon,47.33169,8.623809998
BRO,Bronschhofen,47.47544438,9.034677875
WWUE,Winterthur Wülflingen,47.50643585,8.680929544
EMB,Embrach-Rorbas,47.52059024,8.587068849
ZTB,Zürich Tiefenbrunnen,47.35012468,8.56138985
SENK,"Sennwald, Kirche",47.26625631,9.507059666
SAT,Sattel-Aegeri,47.07986088,8.62725202
GESO,Genève-Souterraine,46.21143352,6.142649944
TOES,Tössmühle Süd (Vzw),47.46602258,8.706788796
AJPO,"Alt St. Johann, Dorf",47.19322716,9.284009755
RUFU,Rupperswil Frequenzumformerwer,47.40608488,8.105610059
DTFS,Dietfurt Süd,47.33437125,9.080487911
DTSS,Dietikon Schöneggstrasse,47.40196131,8.400988158
RTRW,Rothrist West (Abzw),47.30160722,7.866068814
KER,Kerns-Kägiswil,46.90991469,8.260257147
ZASO,Zürich Altstetten Ost (Abzw),47.39056837,8.495085568
SANO,Sargans Nord,47.04485861,9.446306374
HAEW,Häggenschwil-Winden,47.50386332,9.358722577
BROA,Bronschhofen AMP,47.48126713,9.030928052
FET,Fehraltorf,47.38512281,8.750288115
SGFN,St. Gallen St. Fiden Nord,47.44242647,9.398030912
ABOS,Aarburg-Oftringen Süd (Abzw),47.3135511,7.91691899
RTWE,"Rothrist, Weier",47.29859889,7.873847362
LQUW,Landquart Unterwerk,46.97476483,9.552042372
NIDS,Nidelbad Süd (Abzw),47.30705104,8.544346344
HAF,Hafen Bäch (Spw),47.20072896,8.718852003
ZIZ,Zizers,46.93484,9.559589994
WARI,"Wattwil, Rietwis",47.29552736,9.094156412
RITH,St. Gallen Riethüsli,47.4113799,9.367271388
BOSN,Bonstetten Nord (Abzw),47.3346834,8.466512213
LQRI,Landquart Ried,46.9572,9.560869997
LSN,Lausen,47.47034467,7.759762814
MORO,Mörschwil Ost,47.43172717,9.393920093
AGIP,Monthey Agip (embr),46.28869702,6.935939984
TCHA,Tunnel de Champel,46.18707129,6.154195472
TD,Tann-Dürnten,47.26837759,8.852722726
DSTO,Dietikon Stoffelbach,47.39332506,8.39895722
MOE,Möhlin,47.56185847,7.833862658
STMR,Steinmaur,47.48998676,8.446857774
CHUS,Le Châtelard VS usine,46.06120703,6.958116659
SBGU,Sihlbrugg Unterwerk,47.24248007,8.577484076
OWTU,Oberwinterthur Unterhaltanlage,47.51479983,8.767820222
RTGE,"Rothrist, Gemeindehaus",47.3052661,7.891978277
OFKH,"Oftringen,Kallernhag/Center A1",47.30834442,7.926758011
BUGI,"Grabs, Industrie",47.18124939,9.469471923
ZMUE,Zürich Mülligen,47.39660481,8.470402736
FETI,Fehraltorf Industrie,47.38700351,8.746812543
ETGH,"Ebnat, Gemeindehaus",47.26027397,9.12674902
DI,Dielsdorf,47.48242051,8.459443753
BUD,Buchs-Dällikon,47.45340531,8.435601744
SULB,Sulzbrunn,47.34236231,9.29162631
JON,Jonction (Genève),46.20182682,6.120856525
FUBI,Furet (bif),46.20875416,6.115516004
TALR,Tankanlage Rümlang,47.43666393,8.549484286
SLV,Salvan,46.1216124,7.021049494
CXN,Croix-du-Nant,46.23967,6.927450004
FU,Full,47.60940522,8.196980445
ZVB,Zürich Vorbahnhof,47.38442216,8.516170227
WGRU,Winterthur Grüze Unterwerk,47.49989422,8.751768677
ZBGT,Zürichbergtunnel,47.38172578,8.575003224
SALS,"Sattel, Lutzistrasse",47.07540024,8.623933398
WAWS,"Wattwil, Wis",47.2919003,9.097389312
ZMA,Zürich Manegg,47.33793683,8.519629049
KAET,Zürich Käferbergtunnel Mitte,47.40053683,8.525206486
ZTRS,Zürich Riesbachtunnel Süd,47.3550357,8.559489738
ZSEO,Zürich Seebach Ost (Abzw),47.41884549,8.547362462
FUM,Les Fumeaux,46.11008035,7.064608136
FRET,Les Frêtes,47.05857959,6.725787958
WPOS,Winterthur Post,47.50017107,8.751151651
SEVB,"Sevelen, Büeli",47.11537144,9.490368609
MO,Mosen,47.24429231,8.224159651
NPLI,"Neuchâtel,Place Pury Littorail",46.9894122,6.928188159
TOST,Tössmühle Ost,47.47756,8.706129996
NEVS,Neuchâtel-Vauseyon,46.99090025,6.91638186
SIIN,Siggenthal Industrie,47.5175,8.239990005
BVEM,Barrage du Vieux-Emosson,46.06255457,6.898286355
RM,Rümikon-Mellikon,47.56848447,8.352496704
NGUT,Neugut (Abzw),47.40383,8.603439999
GELF,Gelfingen,47.21355904,8.264824924
DEU,Les Deurres,46.98552471,6.899148429
CP,Corcelles-Peseux,46.98335097,6.883813554
KAAG,Kaiserstuhl AG,47.5664467,8.419162488
SEVR,"Sevelen, Rathaus",47.11921654,9.486092629
RILN,"Riedern GL, Lerchen",47.05342136,9.052084667
ODBW,Oberdorf BL Winkelweg,47.39714,7.748830006
BRNI,Brunni,46.83115941,8.388937714
ROBS,Roggwil-Berg Süd,47.48091,9.393899993
REDF,"Reichenburg, Dorf",47.16932757,8.976505263
DGWE,Degersheim West (Abzw),47.35968999,9.177605988
LSBT,Lichtensteig SOB,47.31962783,9.08335303
ZOEP,Zürich Oerlikon Pumpstation,47.40945781,8.539685781
BELV,Bellevue NE,47.118306,6.864260994
NWWE,Niederwald West,46.43486055,8.188817486
LQGB,Landquart GB,46.96067517,9.556101258
BRTL,Brüttenertunnel,47.43825853,8.653026252
ZST1,Zürich Stadelhofen TC-Raum 1,47.36760808,8.547679053
VILB,"Villmergen, Bahnhof",47.34591563,8.247137058
ZHEB,Zürich Herdern Blockstelle,47.38670228,8.510778922
OFBB,"Oftringen, Bühnenberg-Sonnmatt",47.29883197,7.944666304
ZBST,Zürich Birchsteg (Abzw),47.4081,8.537829995
HGHI,Horgen Hirsacher,47.25757472,8.608895999
ZUEA,Zürich HB Gleisfeld A,47.37908189,8.535853445
VMGI,Villmergen Industrie,47.35933,8.24724
GUEB,Gübsensee,47.39790211,9.316797148
BOVI,"Bouveret, village",46.38422094,6.853791503
ZDGL,Zürich Langstr Dienstgebäude,47.37967156,8.52772107
ZBDZ,Zürich BDZ Kohlendreieck,47.38156929,8.522965677
BGF,Berghof,47.3686376,8.480832566
ZLK,Zürich LängsKanal (2.UG),47.37853046,8.535193194
ZASC,Zürich Altstetten Connex,47.36865179,8.539187189
ODBL,Oberdorf BL,47.39212,7.74891
HOE,Hölstein,47.42742,7.771139995
SPHC,Schopfhalde,47.33045646,9.38652422
MUO,Muolen,47.51762436,9.337092978
EISE,Einsiedeln Gleisende,47.12790711,8.744112569
HW,Horw,47.01748016,8.306992215
GRF,Grüenfeld,47.19829526,8.687288843
WOL,Wollerau,47.19543759,8.725009848
SAM,Samstagern,47.19155249,8.685987116
KAI,Kaiserstuhl OW,46.81436655,8.175524692
LUN,Lungern,46.78635283,8.163564729
AAWS,Aarau AVA,47.39100999,8.052670368
GEUE,Geuensee,47.19530642,8.103960875
RIEL,Rielasingen,47.73368846,8.842136853
BRFO,Brig MGB-fo,46.31903049,7.988362525
WILN,Wilen bei Wollerau,47.19758432,8.734332864
SCHI,Schindellegi-Feusisberg,47.17640928,8.709377816
STBG,Steinerberg,47.05221229,8.585277593
NEU,Neuthal,47.35788762,8.864373051
BAEW,Bäretswil,47.33731918,8.85217498
HEIN,Widen Heinrüti,47.36192528,8.354870634
ERDM,Erdmannlistein,47.34936784,8.312620933
WOBD,Wohlen BDWM-bd,47.34841372,8.270331297
HIT,Hirschthal,47.31988673,8.052822898
MUH,Muhen,47.33878205,8.053265346
BUAG,Buchs AG,47.38973841,8.069588336
IS,Iselle di Trasquera,46.20700858,8.207014072
MUEW,Münster West,46.48504363,8.264455207
BADH,Basel Bad Rbf KH (Abzw),47.58346374,7.601910758
STM,Stammheim,47.6348813,8.788750141
SEU,Seuzach,47.53576698,8.738883431
ZG,Zug,47.17370698,8.515049341
CHAM,Cham,47.17824388,8.457504764
AA,Aarau,47.39135951,8.051273719
CRNY,Tunnel de la Croix Nord,47.39110915,7.131943176
BSAU,Basel Auhafen,47.53866435,7.662021096
SAF,Safenwil,47.3217579,7.983518235
GSAG,Emmenbrücke Gersag,47.07831418,8.27682008
TSBL,Tunnel St-Blaise,47.01605676,6.988303033
STNF,Steinen Frauholzstrasse,47.04385822,8.603035218
GOLO,Goldach Ost,47.47545163,9.479555591
HEIT,Heitersbergtunnel,47.43422179,8.310794855
PORS,Porrentruy Sud,47.41789967,7.080730544
RBG,Rothenburg,47.08918367,8.247561445
STER,St. Erhard-Knutwil,47.18008191,8.074581535
STDG,Staz. della Galleria Sempione,46.27233772,8.093494797
BR,Brig,46.31942271,7.988094739
GAMS,Gamsen SBB,46.3038645,7.940267322
ZGCA,Zug Casino,47.16231813,8.515202729
RSEE,Rotseeweg,47.07502519,8.327744608
CHNN,Chambrelien Nord (bif),46.96842108,6.813550934
BSHA,Hagnau (Abzw),47.54153185,7.623030942
IM,Immensee,47.09161866,8.462672036
KUE,Küssnacht am Rigi,47.08359416,8.433517457
SAL,Salgesch,46.30919534,7.578194357
RID,Riddes,46.17251115,7.217854422
PDS,Les Paluds,46.22956931,7.000423085
SHNO,Schaffhausen Nord,47.70855223,8.639531158
LOTO,Lottstetten Ost,47.6397736,8.599922883
QUAD,Quadra,46.74087619,9.404441687
MH,Mühlehorn,47.11784024,9.173018052
MEP,Marin-Epagnier,47.00910689,7.010594791
GESS,Genève sous-station,46.24889989,6.133229812
REST,Reggenschwil Steinachtobel,47.46669258,9.406430017
COTD,Cottendart (embr),46.9712879,6.845696032
RBLT,RBL Tivoli,47.42524893,8.37249056
CABA,Lancy-Bachet,46.17433287,6.129362137
DIET,Dietwil,47.14874075,8.392048442
FREU,Freudenberg,47.15085939,8.452357299
GEC,Les Geneveys-sur-Coffrane,47.01509639,6.853217632
CHN,Chambrelien,46.96710901,6.812256765
NOI,Noiraigue,46.95491961,6.721799144
VERF,Les Verrières-Frontière,46.8991654,6.45900262
LPFR,La Plaine-Frontière,46.17743956,5.990581164
GEPR,Genève-La-Praille,46.18309631,6.125681342
SCHH,Schüpfheim,46.95064736,8.015150589
SY,Satigny,46.21422723,6.037665212
ABOL,Aarburg-Oftringen Längacker,47.33433229,7.908789947
JONN,Jona Nord,47.23156868,8.834956541
RUTS,Rüti ZH Täussitunnel Süd,47.26005183,8.853249772
ASPW,Aspwald (Jona),47.24220475,8.864837845
KLWU,Killwangen-Spreitenbach Uwerk,47.43695323,8.343955429
MUND,Mundbach (Spw),46.30848378,7.947350061
SB,Sandbüchel,47.47536586,9.521668978
WBG,Warmesberg,47.36534372,9.513220567
RITI,Rietli,47.3606993,9.487130041
RBLN,RBL Nord (Abzw),47.42791538,8.369612398
WUER,Würenlos,47.44575947,8.357667806
BRBE,Basel SBB RB Gr E,47.52847319,7.66897988
KRET,Kreuzlibergtunnel,47.46984435,8.305475689
AANT,Aarauer Stadttunnel,47.38986009,8.044931321
HOCT,Hochfluhtunnel,46.98562276,8.612249723
FOTT,Tunnel de Fontelats,47.46948359,7.043082789
RIKT,Rickentunnel,47.22008699,9.033267981
WE,Wettingen,47.45963818,8.316006171
NH,Neuhausen,47.68313341,8.624934546
CCH,Courchavon,47.4397744,7.057645956
CTM,Courtemaîche,47.45586918,7.055380175
CG,Courgenay,47.40522618,7.124205044
DUG,Duggingen,47.45344486,7.603460736
LFN,Laufen,47.41934648,7.502636131
LSB,Liesberg,47.39820526,7.438985278
MRST,Morschach-Tunnel Brunnen (SZ),46.99134101,8.611691056
GEST,Genève-Stade,46.17671359,6.126081827
RUDB,Ruderbach,47.46158888,9.595163096
HEBG,Heerbrugg,47.41039251,9.627248828
STA,Staad SG,47.48052936,9.534451253
RS,Rorschach,47.47800198,9.505141287
RSHF,Rorschach Hafen,47.47858992,9.492923294
GF,Glattfelden,47.54855798,8.52405519
PFZ,Pfäffikon ZH,47.36708624,8.784799698
BSJA,Basel St. Jakob,47.54261315,7.619532292
SOM,Sommerau,47.43902136,7.851481366
TK,Tecknau,47.44576021,7.887618191
IT,Itingen,47.46727872,7.78722598
FRE,Frenkendorf-Füllinsdorf,47.50146999,7.719110532
NHRH,Neuhausen Rheinfall,47.67980493,8.616946472
TLOG,Tunnel des Loges,47.06004714,6.884602114
ZGFR,Zug Fridbach,47.15658114,8.512291782
WEIS,Weissbad,47.31044491,9.435701404
APPZ,Appenzell,47.32853478,9.409529799
LIN,Linthal,46.92556359,8.99779487
NID,Nidfurn-Haslen,46.98589453,9.059276457
LA,Lachen SZ,47.19006843,8.852715189
KIL,Kilchberg ZH,47.32443157,8.548016405
BSGO,Basel SBB GB Ost,47.54260385,7.61574794
KKOW,Kölliken Oberdorf West,47.3246743,8.019083298
GAMU,Gamsen Unterwerk,46.31079148,7.958211138
WFUW,Weinfelden Unterwerk,47.56906661,9.098247132
CHOU,Chiasso Olimpino I,45.82462865,9.048995557
SILB,Silberen (Abzw),47.42135475,8.386977419
HEAB,Herisau AB,47.38983848,9.277053917
LUET,Lütisburg,47.38382862,9.070687125
KAB,Kaltbrunn,47.21798321,9.022431024
SUET,Schützenmatttunnel,47.54966054,7.568408759
STSO,Stein-Säckingen Ost (Abzw),47.53986188,7.954698032
SRBO,Schaffhausen RB Ost (Ende SBB),47.71519578,8.656853981
SMLG,St. Margrethen Landesgrenze,47.44776442,9.657977623
GLBS,Glattbrugg Süd (Abzw),47.42654527,8.558969645
NWGE,Niederweningen (Gleisende),47.51208641,8.367260108
KHF,Kehlhof,47.57218719,9.169779406
BNG,Bussnang,47.55608405,9.084163066
MAE,Märwil,47.53313069,9.06923904
STR,Stein am Rhein,47.65611096,8.855020054
TROG,Trogen Gleisende,47.40768632,9.461912037
KLWW,Killwangen West (Abzw),47.43528976,8.349647686
ZGW,Zug West,47.17370704,8.51504944
ZFN,Zofingen Nord (Abzw),47.29122121,7.940277187
PRW,Pratteln West,47.52562744,7.672040432
PRO,Pratteln Ost (Abzw),47.52260032,7.695621832
PINC,Pino confine,46.10363928,8.756466243
AW,Amriswil,47.55044972,9.302227201
ERL,Erlen,47.55146028,9.226201981
PFU,Pfungen,47.5160384,8.646633942
HUCH,Hünenberg Chämleten,47.16915942,8.449908538
GDMF,Goldau Mühlefluh (Verzw),47.05865967,8.544314632
STE,Steinhausen,47.19458148,8.478436559
KNO,Knonau,47.22026435,8.46673119
MTM,Mettmenstetten,47.24407107,8.457382179
BNZ,Benzenschwil,47.2468515,8.365616895
PIL,Pilatus Kulm,46.97943214,8.255947926
MARE,Les Marécottes,46.11231173,7.011691826
GEBS,"Geschinen, Baschi",46.50082996,8.289311861
GOTP,"Goldau, Tierpark",47.05172712,8.553453032
OBSB,"Obstalden, Bödeli",47.11671035,9.162619152
TUSO,"Turtmann, Soleil",46.30185572,7.704535505
TRUS,Trient usine,46.05832857,6.960261178
PASM,Passmal (B),46.68819634,9.500896989
SPBU,"Speicher, Buchen",47.41135322,9.446664644
ABOA,Aarburg-Oftringen (Abzw),47.32233193,7.904755663
ALIT,Areuse Littorail,46.95449518,6.853056875
CNAL,Colombier NE Allées Littorail,46.96806813,6.869508556
MTGR,"Murgenthal, Rank",47.28232422,7.847715353
ZGME,"Zug, Metalli/Bahnhof",47.17307032,8.516735149
FIMI,"Filzbach, Milchzentrale",47.11941885,9.131732048
TRUB,Trübbach,47.07468822,9.484649255
HLIM,"Oberwil BL, Hüslimatt",47.50654006,7.55526964
GREP,Greppen,47.05618813,8.42683805
BNWE,Bern Weissenbühl,46.93577936,7.430018811
BNBZ,Bern Bümpliz Nord,46.94582924,7.389755688
SWB,Schwäbis,46.76267036,7.619284602
UEA,Uetendorf Allmend,46.77312118,7.594883992
OISH,"Oberwil i.S., Heidenweidli",46.65536016,7.438964221
BWMS,Bern Weyermannshaus (Spw),46.94922224,7.413728375
GAS,Gasel,46.90092801,7.400691912
INS,Ins,46.99983141,7.099561006
BNV,Bern Hochschulstr 6 Gebäude V,46.95015624,7.436990451
LATR,Lattrigen,47.09631133,7.214130202
RD,"Rodersdorf, Station",47.481,7.459070006
MERS,Merligen (See),46.69644091,7.737145714
BNWU,Bern Wylerfeld Unterwerk,46.96733408,7.465569334
OWA,Oberwangen,46.91457109,7.362195655
MAR,Maroggia-Melano,45.93243508,8.973939802
UNZO,Unterzollikofen,46.99173048,7.457009911
BND,Bern Mittelstr 43 Gebäude D,46.9557422,7.435637043
LOGA,Locarno Galleria (incr),46.17178655,8.789979131
WOBO,Worbboden,46.93392908,7.55952527
BK,Brenzikofen,46.81834476,7.61074516
POBR,Ponte Brolla,46.18564,8.753310002
LY,Lyss,47.0763235,7.306301548
NWA,Niederwangen,46.92550708,7.376463531
GAB,Galgenbühl (Agl),46.57038111,7.378218078
MINU,Minusio,46.17400592,8.819566342
BOLD,"Boltigen, Dorf",46.62813746,7.389019296
BWY,Bern Wyler,46.96659792,7.460285364
BNS2,Bern Stellwerk 2,46.95101081,7.44039266
COUR,Courtepin,46.86712,7.122709994
BNHA,Bern Haslerstrasse 30,46.94532546,7.430003017
BHOL,Bern Depot Holligen (Dsta),46.94596932,7.408593064
AEKI,"Aeschi SO, Kirche",47.18127702,7.660292148
GIES,Giessbach See,46.7348271,8.019466933
STPS,Stalvedro portale sud,46.52333132,8.625405746
SMAG,Galleria San Martino,45.98020062,8.95599681
POLD,Pollegio Sud (Dira),46.34571,8.967170002
PON,Pontenet,47.23884832,7.254159258
AFWB,"Affoltern-Weier, Bahnhof",47.06235557,7.749695636
WASM,"Wasen i.E., Stegmatt",47.04453486,7.802334383
TSUD,"Trubschachen, Unterdorf",46.92398698,7.835801792
OLH,Olten Hammer,47.34855516,7.897723972
BLK2,Blindleistungskompensator 2,46.97467852,7.191616512
LIG,Ligerz,47.08376886,7.13515715
MRAB,Meiringen Alpbach,46.72311133,8.190014552
PPSU,Tunnel de Pierre-Pertuis Sud,47.20197559,7.188951583
BELC,Bellinzona Collegamento,46.19969,9.034909995
GOE,Göschenen,46.66581494,8.588808225
WASG,"Wasen i.E., Sparenegg",47.01221679,7.813083902
SEL,Selzach,47.20062403,7.45663504
HWNS,"Huttwil, Schwarzenbach",47.10807753,7.829285861
RUOR,"Rüegsbach, Oberrinderbach",47.06686556,7.709148441
BF,Belfaux CFF,46.81692461,7.106230136
LAV,Lavorgo,46.44090173,8.839747418
AFBA,"Affoltern i.E., Bannholz",47.06594619,7.724809413
TBLP,"Trub, Löwenplatz",46.94253634,7.877495327
BULI,Buchli,47.26363,7.678389998
CORC,Corcelles BE,47.28566541,7.45046312
WEAL,Wengernalp,46.57556149,7.938939613
IWBF,"Interlaken West, Bahnhof",46.68342718,7.851746646
INTR,Intragna,46.17766,8.702270006
RUBH,"Rüegsbach, Bachhaus",47.03917007,7.693259286
TBGS,"Trub, Grundsäge",46.93977761,7.879101392
TBDO,"Trub, Dorf",46.94031747,7.876715478
SPBI,"Schüpbach, Buebenei",46.91844112,7.749928238
DR,Därstetten,46.65871876,7.49569151
ROG,Roggwil-Wynau,47.25163965,7.814916378
BELE,Bellach Industrie,47.20843145,7.495406317
WATT,Wattinger-Tunnel Wassen (UR),46.70633177,8.599075511
BDEY,"Burgdorf, Eybrücke",47.06448677,7.61937128
ROFB,"Röthenbach i.E., Fischbach",46.86024787,7.760581983
THBU,Thalbrücke,47.30842205,7.688271816
SMGS,San Martino Galleria Sud,45.979972,8.955603311
LDAI,Les Daillettes,46.78887876,7.135213586
BDUW,Burgdorf Unterwerk,47.06218733,7.611360219
RUPO,"Rüegsbach, Dorf",47.03487707,7.690239236
FHSS,"Fankhaus (Trub), Schulhaus",46.96690013,7.908179407
FHGG,"Fankhaus (Trub), Gärstengraben",46.96276731,7.90474027
MORS,"Moutier, Rue de Soleure",47.28073266,7.387369916
WENG,Wengen,46.60490198,7.921002917
EGW,Eggwald (Spw),46.69867715,8.593904864
OHD,"Oberhofen a. T., Dorf",46.73123243,7.668379251
SPFU,"Schüpbach, Furen",46.93166755,7.738527761
LABE,"Langnau i.E., Berufsschule",46.9424166,7.7774383
GOSC,"Gohl, Schulhaus Chammershus",46.94178501,7.820999753
WEGG,Winteregg,46.58180491,7.89604778
GOKW,Göschenen Kraftwerk,46.66736322,8.58532665
BOAN,Bodio cunicolo di aggira. nord,46.38006234,8.916719944
KAUW,Kandersteg Unterwerk,46.50264255,7.67436977
ALLI,Allières,46.46982,7.007889997
ROHX,Roches BE,47.29997831,7.38204903
FAWA,Fanelwald,47.00924,7.034650002
NBBF,"Niederbipp, Bahnhof",47.27017648,7.694416835
SOGR,"Solothurn, Grenchenstrasse",47.2118303,7.527557755
OFDH,"Oberfrittenbach, Deckhus",46.97631486,7.79681338
SOAL,"Solothurn, Allmend",47.20938838,7.521297107
SCOE,Schönenwerd SO,47.37142387,8.000158399
LUT,Luterbach-Attisholz,47.21714919,7.58352346
PDAT,Galleria Pardorea,46.48918488,8.76870985
BOWE,Bönigen Werkstätte BLS,46.68847668,7.888614861
BIDO,Biel/Bienne Depot Ost,47.13088526,7.258376068
BKI,Bätterkinden,47.13001999,7.534400006
SIPO,Siporex (embr),46.84008496,6.856707103
GOSH,"Gohl, Schulhaus",46.96089588,7.808522423
BABD,"Bärau, Bäraugrund",46.93777914,7.802545681
LNUB,"Langnau i.E., unt. Beichlenstr",46.94225842,7.794051929
LNCP,"Langnau i.E., Sonnegg",46.94253401,7.783323139
LNLS,"Langnau i.E., Lindenstrasse",46.94259284,7.787670927
EGZT,"Eggiwil, Zilmatt",46.86453158,7.790536209
AESA,"Aeschau, Säge",46.91160712,7.758854214
OBFP,"Oberalppass, Bahnhof",46.66032816,8.670647748
GOLD,Goldswil (See),46.69383113,7.879280849
HOGU,"Gümligen, Hofgut",46.93277,7.510899998
LNHM,"Langnau i.E., Hinterdorf Mühle",46.93828653,7.792751798
OFIB,"Oberfrittenbach, Im Bach",46.97252999,7.796131111
NM,Neumühle,46.96564697,7.749366353
REU,Reuchenette-Péry,47.1897391,7.247024729
ASZO,Amsteg Zugangsstollen Ost,46.77442642,8.697434399
ASZW,Amsteg Zugangsstollen West,46.7761772,8.670632881
CHIG,Chiggiogna (c bin),46.46653908,8.823914388
WAA,Wangen an der Aare,47.23195653,7.656234489
SCI,Les Sciernes,46.49146,7.034219995
AESP,Aespli,47.02839966,7.523528148
MAGL,Magliaso,45.98164,8.884119997
HAMO,Häusernmoos,47.07858188,7.749685368
GOWH,"Gohl, Widhus",46.94662268,7.813363173
RUWR,"Rumisberg, Weissacker",47.26775251,7.645347831
BODO,"Bollodingen, Dorf",47.16780487,7.709881547
LYGR,Lyss Grien,47.07268457,7.296503502
FLHP,"Flüelen, Hauptplatz",46.90242048,8.625003495
WASO,"Walliswil b. Wangen, Sonne",47.23085529,7.682905914
WRSE,"Wangenried, Schule",47.21856645,7.65700051
EGBU,"Eggiwil, Buchschachen",46.88982309,7.782789219
AEHH,"Aeschau, Horben Schulhaus",46.89938655,7.773191321
ZOLS,Zollikofen Schaltposten,47.01240871,7.464920468
ZOLN,Zollikofen Nord (Abzw),47.00769139,7.465881094
TBLO,"Trub, Loos",46.95614631,7.893647327
BNKF,"Bern, Helvetiaplatz",46.9439,7.449210005
BNST,Bern Stöckacker,46.94636032,7.401178544
THTS,Thun (See),46.75410428,7.63131911
WMUW,Wimmis Frequenzumformerwerk,46.68118689,7.656364411
KAHE,Kaltenherberg,47.23718,7.799590003
BNHO,"Bern, Hauptbahnhof",46.94899589,7.438527373
NBT,Niederbottigen BN,46.94249879,7.368026053
LPN,Laupen BE,46.90129246,7.24201524
BNPO,Bern Schanzenstr 5 Gebäude PO,46.94806037,7.43691174
SEMS,Semsales,46.57334999,6.926929996
BISS,Bissone (B),45.94406999,8.965539997
NIBE,Nidau Beunden,47.11982,7.24032
NIDA,Nidau,47.12401,7.242190006
SWDG,Schwendi bei Grindelwald,46.63047,8.003070002
FLMD,Flamatt Dorf,46.8899,7.310520006
HAE,Hägendorf,47.3302678,7.843816396
OZKB,"Oberönz, Kreuzstr.-Burgäschi",47.17080198,7.679068551
FLUE,"Flüh, Bahnhof",47.48905,7.499170006
LHO,Lindenholz,47.15456318,7.790469254
OBPO,"Oberburg, Post",47.0399301,7.625183661
BNW,Bern West (Spw),46.95077597,7.424681946
ROFI,"Röthenbach i.E., Fischbachbrü",46.86123784,7.769885922
RODO,"Röthenbach i.E., Dorf",46.85274407,7.741380265
TO,Toffen,46.85847128,7.49603328
RHT,Rosshäuserntunnel Portal Ost,46.93223789,7.289104147
MAD,Madretsch,47.12748013,7.259434998
MEZC,Mezzovico (c bin),46.08490131,8.922797145
BPST,Belp Steinbach,46.89516463,7.493091803
POLN,Pollegio Nord (dira),46.36799479,8.932161727
TSTI,"Thun, Bahnhof",46.75513215,7.629896133
EGOZ,"Eggiwil, obere Zilmatt",46.86170282,7.786019503
HBSO,"Herzogenbuchsee, Sonnenplatz",47.18815102,7.706065686
HEPS,"Heimenhausen, Post",47.2086928,7.699172391
OBPS,"Oberburg, Pfisternstrasse",47.0326854,7.632854928
ETMH,"Etziken, Mehrzweckhalle",47.18646224,7.653294342
BNDO,"Bolken, Dorf",47.1938726,7.663445191
OBAL,Oberalppass,46.66023006,8.670502362
LNHL,"Langnau i.E., Hüselmatte",46.94558046,7.765886367
OEBS,"Oensingen, Bahnhof Süd",47.28503077,7.710673742
LNHE,"Langnau i.E., Hotel Emmental",46.93798707,7.787733003
CORA,Corcapolo,46.16880999,8.675139995
RAMB,"Ramsei, Bahnhof",46.99686119,7.711097442
ER,Erstfeld,46.82033941,8.65045464
INNP,Innertkirchen Grimseltor,46.70557595,8.22959307
GIU,Giubiasco,46.17381273,9.003600089
WGAP,"Weissenburg, Hotel Alte Post",46.6587279,7.475219494
STEF,Steffisburg,46.77300002,7.615160564
GMM,Gümmenen,46.9421822,7.234409398
BWEY,Bern Weyermannshaus GB,46.9473192,7.410917216
ROSS,Rosshäusern,46.93434178,7.296869929
LOAN,Locarno S. Antonio,46.1688749,8.786300047
BUER,Büren an der Aare,47.13815711,7.371242831
THB,Thun GB,46.75649409,7.626667362
ZW,Zweisimmen,46.55348255,7.374861907
SUGI,Sugiez,46.96413,7.119349996
SCLW,Schönbühl SBB Leerwagen,47.0181818,7.49530561
GUES,Gümligen Süd (Abzw),46.92994701,7.513031568
MUKW,Mühleberg Kraftwerk,46.96919289,7.284440751
LGUT,Löchligut (Abzw),46.9805904,7.465954677
WYST,Wynigen Stöckacher,47.08196514,7.645476779
TAEU,Täuffelen,47.06651,7.198550001
LTLI,"Langenthal, Lindenhof",47.21239013,7.781561282
WILD,Wilderswil,46.6657,7.869470006
LTHU,"Langenthal, Hardau",47.22292745,7.786078193
LTEN,"Langenthal, Schoren-Eisbahn",47.20597331,7.773587667
HEPT,"Heimiswil, Oberdorf",47.06448081,7.658994805
ADDE,Adelboden Dorfstrasse 4,46.49385247,7.560334852
LBAD,Leissigbad (Agl),46.65600357,7.753091158
SPSS,Spiez Schiffstation,46.68844046,7.689923828
SUMA,"Sumiswald, Mauer",47.03756026,7.764459538
RUEP,"Rüegsau, Dorf",47.02487617,7.672394761
BIMA,Biel Mett (Abzw),47.14766989,7.276283531
LAT,Lattigen bei Spiez,46.69114124,7.650268945
RIBN,Rivera-Bironico Nord,46.12832252,8.92349051
FRAC,"Frutigen, Achere",46.57178713,7.654047434
LTSI,"Langenthal, Sängeli",47.20281297,7.777751718
LTNE,"Langenthal, Nencki",47.22488339,7.784717709
LTBF,"Langenthal Süd, Bahnhof",47.20588516,7.779117449
SEID,"Gümligen, Seidenberg",46.93302,7.492530005
FLET,"Flüelen, Eggberge Talstation",46.89269994,8.627177543
MASN,Massagno Nord,46.01782285,8.93265412
ENGE,Enge im Simmental,46.64753324,7.417624444
JEG,Jegenstorf,47.04760999,7.507779996
GN,Grenchen Nord,47.19169821,7.389618663
BIAFU,Frequenzumformerwerk Biasca,46.33438832,8.979189804
SMAR,S. Martino,46.172,8.770369994
OAB,Oberried am Brienzersee,46.73655776,7.95892632
LEN,Lengnau BE,47.17943142,7.366553676
MOU,Moutier,47.28067252,7.381044296
GMDM,"Grünenmatt, Dorfmitte",47.00768178,7.72248758
ERTG,"Eriswil, Thanweg",47.08423856,7.850538274
HADO,"Häusernmoos, Dorf",47.07833193,7.749261443
WAAB,"Wasen i.E., Aeschberg",47.02199675,7.809626855
CHE,Chénens,46.74921079,7.000429645
AP,Ambrì-Piotta,46.51076379,8.689927899
FA,Faido,46.4830755,8.790710107
TBMH,"Trub, Mülihof",46.94289146,7.881057625
HBKK,Hindelbank Kernenried,47.04955719,7.545399888
GRUO,Gruonbach (Spw),46.91380924,8.622506419
SEE,Seelisberg (Bergstation),46.97880821,8.586929367
SW,Solothurn West,47.20671729,7.53194915
BIOA,"Biel/Bienne, Omega",47.1443901,7.260729462
BOSC,Boschetto,46.3073959,8.602647654
GIDT,Galleria ATG alle Giustizia,46.32642129,8.979509419
MOLG,Galleria Molincero,46.07831745,8.924735515
PASQ,Pasquerio (bin rac),46.36062,8.952789995
OEEN,Oensingen [Gleis 7-8],47.28495302,7.709311852
INUN,Innertkirchen Unterwasser,46.70809694,8.226079365
BIPM,"Biel/Bienne, Altstadt/V. Ville",47.14031617,7.244594369
BICB,"Biel/Bienne, Centre Boujean",47.16178664,7.292889333
SALE,Sâles,46.64028,6.974029999
BET,Bettlach,47.19494941,7.428373017
CGY,Cugy FR,46.81602828,6.88916459
SUEY,"Sumiswald, Ey",47.02813978,7.755733231
SILD,"Silenen, Dägerlohn",46.79266538,8.669193517
INSD,Ins Dorf,47.00558,7.106809998
SADP,"Safnern, Dorfplatz",47.149624,7.322826041
BDCI,"Burgdorf, City",47.0588229,7.62316942
OBEI,Oberei bei Wasen i.E.,47.04341938,7.777020983
RHCP,"Röthenbach b. H., Chrump",47.2014146,7.687602218
BISP,"Biel/Bienne, Stadtpark/Parc m.",47.14039429,7.253742839
SCB,Sonceboz-Sombeval,47.19514836,7.168763579
KZPP,Kerzers Papiliorama,46.98977374,7.199281448
BEAT,Beatenbucht (Beatenbergbahn),46.6855029,7.747085131
LTHO,Langenthal Ost,47.22855696,7.786471238
LTIH,Langenthal Industrie Hard,47.22679279,7.777811123
ATTI,Attiswil,47.24639999,7.613879997
NAEX,"Nätschen, Abzw. Bahnhof",46.64187288,8.613026537
SCUB,Schüpbach (Signau),46.93234273,7.734645475
HWUE,"Huttwil, Uech",47.10937387,7.857134371
BIOR,"Biel/Bienne, Diamantstrasse",47.13862598,7.250479795
HWST,"Huttwil, Stadt",47.11387978,7.84882319
VING,Vingelz (B),47.13516531,7.231049523
RUBN,"Rüegsbach, Britternneumatt",47.06197051,7.702147218
ERGI,"Eriswil, Gässli",47.07578711,7.854449829
DHDO,"Dürrenroth, Dorf",47.08995752,7.791552679
OLS,Olten Süd (Abzw),47.34561682,7.907629841
ALSA,Al Sasso,46.14661133,8.957835463
BURG,Burglauenen,46.63591,7.975330003
SAAC,Sandacher (Spw),47.05988521,7.574782992
CORM,Cormoret,47.1729471,7.054123568
BDHE,"Burgdorf, Heimiswilstrasse",47.05311991,7.628796024
LALO,Langenloh,46.9273,7.544229994
RUWH,"Rüegsau, Weghaus",47.0290551,7.682884517
LTWE,"Langenthal, Wiesenstrasse",47.21373877,7.784764516
ORBS,"Orpund, Bürenstrasse",47.13912451,7.311986735
PIGH,"Pieterlen, Gemeindehaus",47.17478667,7.336687694
INNT,Innertkirchen Kraftwerke Ost,46.70129564,8.233468215
KSN,Kehrsatz Nord,46.91583637,7.466109064
BDEW,"Burgdorf, Eyfeldweg",47.06744033,7.617314336
AARH,Aarwangen Hard,47.23526031,7.773533139
ALBF,"Altdorf UR, Bahnhof Ost",46.87573903,8.63177506
KOPT,"Koppigen, Post",47.13171534,7.607181147
FHZG,"Fankhaus (Trub),Zwüschengreben",46.97835661,7.932594086
LNIL,"Langnau i.E., Ilfis",46.93965712,7.776737999
ALOB,"Alchenstorf, Oberalchenstorf",47.12408189,7.644083746
GALP,Grütschalp,46.59651556,7.890873669
LSTS,Leissigen (See),46.65543698,7.770507976
GRBC,"Flüelen, Gruonbach",46.9153844,8.624974465
LPNO,Laupen Ost (Ausw),46.90001798,7.247723574
BIRE,"Biel/Bienne, Renferstrasse",47.1596723,7.285576136
BDGY,"Burgdorf, Gymnasium",47.05617609,7.618922213
WYBF,"Wynigen, Bahnhof",47.10513799,7.663693292
HWAS,"Huttwil, Alterssiedlung",47.11156345,7.835754144
MDUW,Melide Sottocentrale,45.96646713,8.948261685
ROFG,"Röthenbach i.E., Fambach Gara",46.86058435,7.752781088
ROFP,"Röthenbach i.E., Fambach",46.8603683,7.749540655
IOBR,Interlaken Ost [Gleis 3-4],46.69086134,7.870324217
TSTB,"Trubschachen, Teufenbachsteg",46.92357989,7.82595162
TBSG,"Trub, Sägegasse",46.94332089,7.883990134
BOOS,Bodio Bahntechnikgebäude Ost,46.37264079,8.926318195
PIAG,Galleria Pianotondo,46.42560016,8.859527662
PRAG,Galleria Prato,46.48604858,8.770703877
NGBT,Neue Gruonbachgalerie,46.91542878,8.623294944
TVIG,Tunnel du Vingelz (Vingneule),47.13507446,7.230548986
BIO,Biel/Bienne Ost,47.13665946,7.259241136
CONE,Contone,46.15017187,8.927237981
BDFS,Burgdorf Steinhof,47.05119989,7.619539429
BO,Bodio TI,46.38025452,8.906567985
AI,Airolo,46.52752596,8.608619756
CAST,Castione-Arbedo,46.22292165,9.041461806
TNSE,"Thunstetten, Schorenmatte",47.20364615,7.763278425
RUEF,Rüfenacht,46.92982,7.531009996
ODF,Oberdorf SO,47.23588345,7.493696221
GOMA,"Gohl, Matten",46.95794073,7.807188319
BADO,"Bärau, Dorf",46.93219287,7.811017234
MIUB,"Mitholz, Underem Büel",46.51442864,7.677821781
HWBR,"Hermiswil, Brücke",47.15138614,7.695545166
KIBM,"Kirchberg BE, Badimatte",47.07695334,7.595067304
EGNH,"Eggiwil, Neuhof",46.89412255,7.782895408
HENI,"Heimiswil, Niederdorf",47.0612211,7.656111883
ROBU,Roggwil Buchägerten,47.23566,7.831940003
RIAZ,Riazzino,46.1753363,8.886397374
UTI,Uttigen,46.79431052,7.582630438
WABA,"Wangen an der Aare, Bahnhof",47.23180899,7.655733901
BIHW,Biel/Bienne IW,47.14119361,7.260929903
KLS,Kleine Scheidegg,46.58479509,7.960122537
SO,Solothurn,47.2041925,7.542689211
EIIE,Ei im Emmental,47.02762123,7.755891979
OEBE,Oeschberg,47.12830109,7.610702602
MUSS,Mussachen,47.09013718,7.773036335
BUUN,"Bützberg, Unterdorf",47.21717259,7.75414563
OBOE,Oberösch,47.10883872,7.608967177
BUNE,"Bützberg, Neuquartier",47.21125949,7.738613787
SPBE,"Schüpbach, Buebeneibrücke",46.92193209,7.746298519
BAVC,"Bärau, Vorder Chammershus",46.93842031,7.818428018
BASO,"Bärau, Sonne",46.93482333,7.807043211
MUE,Mülenen,46.63802804,7.691316647
SPAO,Bellinzona S. Paolo,46.20359965,9.03847697
BIEM,Biel Madretsch,47.13751356,7.252826473
KIPO,"Kirchberg BE, Post",47.08400165,7.584170876
VEZB,Vezia (bif),46.02569316,8.934655584
WBPH,"Wiedlisbach, Pflegeheim",47.2544325,7.634450412
SUBH,"Subingen, Bahnhof",47.19316941,7.612177083
ALWI,"Alchenstorf, Wil",47.11353769,7.650262548
ORNM,"Orpund, Neumatt",47.14123056,7.290612341
RGBN,"Rumisberg, Bären",47.26390846,7.642175067
OZMO,"Oberönz, Moos",47.17635235,7.688910632
HWPO,"Horriwil, Oberdorf",47.18098809,7.625290826
GOME,"Gohl, Mettlen",46.96228281,7.810791866
FAJU,"Farnern, Jura",47.26668305,7.623554084
NRS,Niederried (See),46.71774947,7.932317111
BEPO,"Bettenhausen, Post",47.17339551,7.711637809
WY,Wynigen,47.10517483,7.663506863
SMAC,San Martino (cambio),45.97701,8.955369995
HOND,Hondrich Süd,46.66969512,7.670183994
ALTT,"Altdorf UR, Telldenkmal",46.88177333,8.644006194
BGUR,Brügg (Bürglen UR),46.8767807,8.681809889
ZUKF,"Zuchwil, Kornfeld",47.20519973,7.559131103
LESH,"Leissigen, Schulhaus",46.65660185,7.781188882
EGBR,"Eggiwil, Brambach",46.86096612,7.779719925
LE,Leuzigen,47.1778562,7.448585069
MAT,Mattstetten (Km-Sprung),47.0260956,7.519468125
EIN,Einigen (Spw),46.71113547,7.639448127
KG,Kandergrund,46.55739831,7.662678835
GS,Grenchen Süd,47.18877469,7.398180061
ROGD,Roggwil Dorf,47.23934,7.822340002
CRTG,Galleria Crocetto,46.3318978,8.98170398
GERP,"Gerra (Gambarogno), Paese",46.12287029,8.785836249
THOD,Thörishaus Dorf,46.89356924,7.351866624
WCH,Wichtrach,46.84161209,7.568855807
GUE,Gümligen,46.93432192,7.505504796
WYNO,Wynigen Nord,47.12470433,7.675965623
POLL,Pollegio,46.36407029,8.942607312
POLU,Pollegio Sottocentrale,46.36797617,8.932780058
LIAL,Ligerz (Talstation),47.08394863,7.134695457
IO,Interlaken Ost,46.6905,7.869000004
KGRI,"Kandergrund, Riegelsee",46.53943096,7.667372543
HOS,Hospental,46.62108227,8.570964354
ROSD,"Röthenbach i.E., Schindellegi",46.86577504,7.728744602
BIRW,Biel/Bienne Blumenrain,47.13867629,7.260997603
MM,Müntschemier,46.99332304,7.142438877
RTSH,"Riedtwil, Schulhaus",47.14652635,7.696695303
SPOS,Spiez Ost (Spw),46.67551278,7.694464182
NEY,Neyruz FR,46.76604906,7.065027432
CAAG,Cappella-Agnuzzo,45.99325999,8.924449998
HEST,"Heimisbach, Sternen",47.01450283,7.765490353
HEKB,"Heimisbach, Krummholzbad",47.01783133,7.768535679
BEDO,"Bettenhausen, Dorf",47.17175145,7.718316986
RHSS,"Röthenbach b. H., Schützenhaus",47.2077271,7.679975937
COUS,Cousset,46.81860488,6.977491131
BIAE,Biel/Bienne Aebistrasse,47.13064976,7.249009563
TELT,Tellsplattentunnel,46.93253841,8.612929212
BIBF,"Biel/Bienne, Bahnhof/Gare",47.1334689,7.243314411
SOGO,Sorengo,46.00038999,8.934830002
CASL,Caslano,45.97774,8.876290002
ZOBF,"Zollbrück, Bahnhof",46.97568025,7.742321351
WABF,"Wasen i.E., Bahnhof",47.04354249,7.791721577
RAOB,"Ranflüh, Oberdorf",46.98547045,7.741022694
SWAR,"Sumiswald, Arch",47.02948385,7.747729497
GVAL,Grandval,47.2835889,7.421882091
RYN,Rynächt Nord,46.86334793,8.635466856
STAF,Stabio,45.84970966,8.943942214
VIGA,Vigana (c bin),46.15070363,8.980897158
MOUG,"Moutier, gare",47.28073857,7.380972745
ZOL,Zollikofen,47.00182594,7.462911196
LIFE,Ligerz Festi,47.08715129,7.132039458
BDSH,"Burgdorf, Schützenhaus",47.05847002,7.629960054
BDJS,"Burgdorf, Jungfraustrasse",47.0536272,7.621019489
RUKI,"Rüdtligen, Käserei",47.08703202,7.569916501
HBBS,"Herzogenbuchsee, Bernstrasse",47.18664087,7.703242215
FRIG,"Frutigen, Ischlag",46.59113687,7.64911352
EGTI,"Eggiwil, Tenndli",46.86175528,7.774452918
EGLE,"Eggiwil, Leimen",46.86817433,7.793576665
UEUW,Uetendorf Unterwerk,46.7724077,7.5976054
HEDM,"Hellsau, Dorfmitte",47.14625678,7.647675492
LGP,Lugano-Paradiso,45.98937264,8.946889752
GRU,Grubenwald,46.57981057,7.382968779
RUV,Rüfenacht BE (Verzw),46.92522597,7.530487157
BUHO,Büren zum Hof,47.09594999,7.518809996
MAGN,Maroggia Galleria Nord,45.94178412,8.971167853
OZPO,"Obersteckholz, Post",47.19954062,7.817639749
HOZ,Zollikofen HOZ,47.00325184,7.464403335
MOOS,Moos,46.90998594,7.401026371
WIED,Wiedlisbach,47.25288,7.646100001
BLCE,Blenio Cent. elettrica (bif),46.33439833,8.980372066
BDTW,Burgdorfer Tunnel West,47.06438208,7.633930245
UE,Uetendorf,46.77492419,7.572846923
FBR,Fraubrunnen,47.08658155,7.522215944
REBH,"Reichenbach i. K., Buchholz",46.61302095,7.673322143
RARM,"Ranflüh, Ranflühmatte",46.99027092,7.735252365
TRDF,"Triboltingen, Dorf",47.66127791,9.109656854
MTB,Montbovon,46.4854261,7.04214049
GZ,Galmiz,46.95087063,7.153207344
SCR,Schönried,46.50454,7.291099994
RAM,Ramsei,46.996877,7.70993011
BOW,Bowil,46.90004819,7.698053526
HBN,Herzogenbuchsee Nord (Ge),47.19696088,7.695111729
STDO,"Steffisburg, Dorf",46.78015972,7.633899816
PIN,Pino transito,46.10455132,8.757019471
WBDO,Worb Dorf,46.92998,7.562470001
BIGE,Bigenthal,46.96539813,7.623374715
DEI,Deisswil,46.95822822,7.513268539
SAMW,"Safnern, Moosweg",47.15388507,7.329436082
SAIN,"Safnern, Industriestrasse",47.15576195,7.33584081
DEKP,"Derendingen, Kreuzplatz",47.19967951,7.580722651
LTLO,"Langenthal, Löwenplatz",47.21021354,7.787513732
LTZE,"Langenthal, Zelgligasse",47.21338585,7.776379765
LTNU,"Langenthal, Neuhüsli",47.2078975,7.782984458
BFV,Belfaux-Village,46.82269999,7.110230003
TSAM,Tschamerie,47.0249966,7.636970806
BIBZ,"Biel/Bienne, Brunnenplatz",47.13856618,7.24490379
BIHS,"Biel/Bienne, Heilmann-Strasse",47.14274374,7.249344664
BDKK,"Burgdorf, Katholische Kirche",47.05824417,7.619416145
LTPI,"Langenthal, Passhöchi",47.21328174,7.793091219
LTMI,"Langenthal, Mittelstrasse",47.20797763,7.786258427
LTRI,"Langenthal, Rössli",47.21025247,7.792450776
LTDR,"Langenthal, Dreilinden",47.21730099,7.769328336
LTDE,"Langenthal, Dennli",47.20150843,7.780897738
CAMN,Camorino Nord,46.15859631,8.985806225
GIVO,Givisiez Ouest,46.81675762,7.119683513
OIS,Oberwil im Simmental,46.65613563,7.435483347
SERO,Serocca,46.00852,8.904570004
SCBS,Schönbühl RBS,47.02048,7.497809999
ERLA,Erlach (Schiff),47.04927558,7.097425351
ABE,Aarberg,47.04454128,7.278692566
LTHG,Langenthal Gaswerk,47.2248,7.78218
LAIA,Langenthal Industrie Nord Ausw,47.23008149,7.788026771
GIDG,Galleria Giustizia,46.32745142,8.982486866
BORC,Borgnone-Cadanza,46.15852,8.6225
LAMC,Lamone (c bin),46.02450999,8.934629995
BDST,"Burgdorf Steinhof, Bahnhof",47.05311087,7.617582676
BREL,Les Breuleux-Eglise,47.21300819,7.002421546
CHXB,La Chaux-des-Breuleux,47.22049485,7.025418417
LTHB,"Langenthal, Bahnhof",47.21686983,7.78446791
LTC,Lausanne-Triage C,46.5308367,6.545076577
ONB,Onnens-Bonvillars,46.83264056,6.689858901
MATX,Mattstetten Aespli,47.02755596,7.522822174
SIFI,Siselen-Finsterhennen,47.03114999,7.180390006
HWIL,Huttwil,47.11449004,7.842607663
VVP,Vevey-Plan (lac),46.46506316,6.834235585
TRWD,Trachselwald,47.01655938,7.736936133
KIBF,"Kirchberg-Alchenflüh, Bahnhof",47.08218447,7.58156541
GUGO,"Gurtnellen Wiler, Gotthardstr.",46.72784001,8.623258509
WAEN,Wängi,47.49630839,8.953288129
HBBF,"Herzogenbuchsee, Bahnhof",47.18825178,7.701355758
NZPO,"Niederönz, Gemeindehaus",47.1844239,7.691560601
SGET,"St. Gallen, Etzelbünt",47.41537481,9.38675836
HO,Hochdorf,47.16697519,8.288699624
SPNI,Spiez Niesenbrücke (Abzw),46.68449018,7.682458474
RTRZ,"Rothrist, Hungerzelg",47.29612907,7.858265795
CHTU,Châtelaine (tunnel),46.20632694,6.119323744
KZS,Kerzers Süd (Abzw),46.97376238,7.19248074
DAYS,Le Day sous-station,46.72055546,6.398487608
LTSA,Lausanne-Triage SALT,46.52349279,6.527411929
WIS,Wildegg Süd,47.39798533,8.170299382
TAMO,Tägermoos (Abzw),47.65699506,9.149648181
TERE,Galerie Territet Sud,46.42243592,6.924287171
SLB,Sur-le-Buis,46.3533,7.100629999
TI,Tägertschi,46.88228633,7.58083657
HMB,Heimberg,46.79087368,7.606130708
BIZO,"Biel/Bienne, Zollhaus/Octroi",47.1576768,7.273621371
KAL,Kallnach,47.02552339,7.235196476
LQGV,Landquart Güterverkehr,46.95787849,9.555741096
HADF,Hardfeld (Df),47.03508262,7.525794122
WBHF,"Winterthur, Hauptbahnhof",47.49973061,8.72370375
AIPM,Aigle-Place-du-Marché (DIAB),46.31669,6.969829998
SAVL,"Sargans, Vild",47.05616839,9.449117503
CUCG,Cully (lac),46.48747195,6.731615508
EPFL,"Ecublens VD, EPFL",46.52219591,6.566141398
SENO,Seon Nord,47.35315657,8.160253102
SPK,Spitzkehre (Lenzburg),47.38677728,8.173257946
LTZI,"Langenthal, Zelgli",47.21607469,7.773492409
MBUD,"Meinisberg, Unterdorf",47.16072397,7.353911419
MBNS,"Meinisberg, Niesenstrasse",47.15812572,7.344078091
AFWE,Affoltern-Weier,47.06191708,7.749855469
SCMI,Schmitten FR,46.86294136,7.253920398
WAUN,"Wangen a.d. Aare, Unterführung",47.23004931,7.653983747
MEZS,Mezzovico-Sigirino,46.07549,8.928449999
CHS,Cheyres,46.81694583,6.786393707
BRTM,Brüttenertunnel Ber. Mülberg,47.43072993,8.650990064
RIN,Ringgenberg,46.70386126,7.899825448
SCPX,"Scuol, posta",46.79552178,10.29523248
SCUX,"Scuol, Bogn Engiadina",46.79835624,10.30174003
LTF,Lausanne-Triage F,46.52531154,6.529706488
RTWB,"Riedtwil, Bahnhof",47.14013772,7.693672146
GWSO,"Grasswil, Sonne",47.15221081,7.680214278
RTEM,Route de Morgins,46.23215133,6.921420456
CUG,Cugniel (B),46.69466645,9.480899231
KD,Kaufdorf,46.83788683,7.501856703
RIBS,Rivera-Bironico Sottocentrale,46.12579041,8.924437488
IOBF,"Interlaken Ost, Bahnhof",46.69031681,7.869068473
FAHR,"Fahrwangen, Bahnhof",47.29523376,8.237484817
BIMM,"Biel/Bienne, Mühle/Moulin",47.14633851,7.270320974
ESP,Essert-Pittet,46.72767332,6.580655818
MIES,Mies,46.29848883,6.167654651
BY,Bussigny,46.54759037,6.551826149
OL,Olten,47.35193476,7.907699648
GLHA,Glion-Alpes,46.4338043,6.925753437
SOBN,"Solothurn, Brunngraben",47.20574896,7.516315617
HB,Herzogenbuchsee,47.18808613,7.700958269
BUTE,"Bützberg, Tell",47.21418789,7.743527718
MEOF,"Melchnau, Oberdorf",47.17832173,7.854203376
KA,Kandersteg,46.49539665,7.671412559
EROD,"Ersigen, Oberdorf",47.0916519,7.594477795
VUIB,Vuiteboeuf,46.80376242,6.553740873
BIBO,"Biel/Bienne, Bözingen/Boujean",47.15567603,7.270924368
BAL,Balerna,45.84674506,9.005035609
MBRW,"Meinisberg, Rosenweg",47.16156792,7.351839577
BUKA,"Bützberg, Käserei",47.21581734,7.746388474
RIBE,Riffelberg,45.99294814,7.755090072
GOGR,Gornergrat,45.98331259,7.782192684
RIBO,Riffelboden,46.00117209,7.757643757
RBLP,Zürich RB Limmattal Depot/Bau,47.41495747,8.392519555
LGSR,"Lichtensteig, Steigrüti",47.33374413,9.087244062
ECU,Ecublens-Rue,46.61043024,6.811054981
SAN,S. Antonino,46.15904914,8.969520646
STBR,"Stein SG, Breitenau",47.20451742,9.221875116
AL,Altdorf UR,46.87573871,8.631575417
PLAC,Planchamp,46.45118,6.901000001
BIER,Bière,46.53743999,6.336909994
KINY,"Kirchberg BE, Nyco",47.08916868,7.581010853
SP,Spiez,46.68639567,7.680103058
RECK,Reckingen VS,46.46822532,8.243888022
FIE,Fiesch,46.40628477,8.134191753
HED,Hedingen,47.29878523,8.445965553
BSDO,Bassersdorf Ost (Vzw),47.43770958,8.63113963
LBW,Lenzburg West (Abzw),47.39267185,8.165913938
SPIN,Spinas,46.55983999,9.845329998
TAES,Täsch,46.06745579,7.774507214
HEBR,Herbriggen,46.13214788,7.791634903
VEMO,Versmont,46.34142,7.006949998
ROUL,La Roulaz,46.33132,7.00148
AGHO,Aigle-Parc Aventure,46.3153,6.986219994
IW,Interlaken West,46.68262798,7.851453138
FR,Frutigen,46.58890754,7.651418315
DABF,"Därligen, Bahnhof",46.65978961,7.81444736
KAIK,"Kandersteg, Im Kehr",46.50308179,7.679413307
SCUW,Unterwerk Pian Scairolo,45.98089982,8.925869297
OSTP6,Ostermundigen Poststrasse 6,46.95715528,7.482998012
LRKA,"Langnau bei Reiden, Käserei",47.23080185,7.961466959
MROS,Täsch Monte Rosa,46.07453405,7.774760056
NG,Niederglatt ZH,47.48747102,8.503315576
ABHW,"Abtwil SG, Hüslenweg",47.42379665,9.321578289
SAGB,"Sattel, Gondelbahn",47.07882251,8.634847137
TVAL,Tunnel de Vallorbe (Mont d'Or),46.70936152,6.360488501
HWPT,"Horriwil, Post",47.18249591,7.621720755
FFFW,Frauenfeld FW Bahn,47.55743143,8.89591866
ALTR,Altreu,47.19038423,7.44888062
FCK,Frick,47.50734852,8.013092463
AARS,Aarwangen Schloss,47.24518,7.763620002
REAL,Realp,46.59862576,8.503458516
VAL,Vallorbe,46.71240632,6.370565635
KR,Kreuzlingen,47.65255277,9.169080418
BDPW,"Burgdorf, Pulverweg",47.06504034,7.610289911
KLOG,Klosters Gäuggeli (Abzw),46.87910933,9.877264154
KZW,Kerzers West (Abzw),46.97366153,7.192089003
UNPO,Unterentfelden Post,47.36867273,8.044448755
MI,Muri AG,47.27666623,8.339820727
GWRE,"Grasswil, Regenhalden",47.15179289,7.673514176
HUE,Hüswil,47.1285743,7.905862953
SISL,Siselen Ausweiche,47.03210915,7.181918613
BDKR,"Burgdorf, Kronenplatz",47.05596487,7.627252969
CURE,La Cure,46.46515,6.073570005
BIOG,Bioggio,46.01211,8.908890004
ITT,Ittigen bei Bern,46.97331,7.484130006
TAEG,Tägerwilen-Gottlieben,47.65961479,9.132979282
SCHT,Schlatt TG,47.67949979,8.687510823
RAEF,Räfis-Burgerau,47.14994819,9.485185119
EINF,Einfang (Abzw),47.39883261,8.462561689
SGBH,"St. Gallen, Bahnhof",47.42349329,9.370484537
GAE,Gänsbrunnen,47.26565248,7.464915731
OLN,Olten Nord (Abzw),47.36497076,7.918057186
OLNO,Olten Nord-Ost (Abzw),47.35981639,7.915163912
CHSU,Chiasso SM Fascio U,45.83429448,9.007421134
BAGE,"Ecublens VD, Bassenges",46.52458595,6.564590946
THUA,Thurnen Süd (Ausw),46.8076997,7.515402144
PER,Perroy,46.47123186,6.36299226
AIGM,Aigle-Place-du-Marché,46.31723999,6.970339995
WAE,Wädenswil,47.22930728,8.675216271
BWMB,Bern Weyermannshaus (Spw) BLS,46.94928,7.413679995
RBEG,Galleria Roca Bella,46.18041419,8.836930783
LOEW,Muntelier-Löwenberg,46.93797415,7.133261521
LGN,Lugano Nord,46.01022808,8.942654268
LUY,Lussy FR,46.70926453,6.938509391
PONT,Pontarlier,46.90095277,6.353712146
BNB,Bern Brünnen Westside,46.94403701,7.37527808
CHUW,Chur Unterwerk Haldenstein,46.87348669,9.532486914
AF,Affoltern am Albis,47.27607036,8.446594995
BLL,Ballwil,47.15376766,8.316898802
HOL,Bern Holligen,46.94646377,7.409049916
PAPI,Papiermühle,46.97425731,7.47658551
SWEH,Schwanden b. Schüpfen Eichholz,47.03996327,7.435749262
BUAB,Bundkofen Autobahnbrücke,47.04568612,7.3638069
DOAK,"Dotzigen, alte Käserei",47.12025568,7.341892297
MOSE,Moosseedorf,47.01614,7.484849994
KI,Kiesen,46.81894382,7.575501285
LBF,Liebefeld,46.93001116,7.41898787
BRBS,Bern RBS,46.94949,7.439709999
STEL,St-Eloi,46.72024593,6.532509599
FRD,Ballens-Froideville,46.54966,6.390230001
RIKU,"Richenthal, Kurhaus",47.20828664,7.939428026
PFAB,"Pfaffnau, Brunnmatt",47.23383413,7.909003
BRFA,Birrfeld Auto,47.45077522,8.212979852
YVWB,Yverdon William Barbey,46.78899199,6.631676265
RTR,Rothrist,47.30645568,7.879396468
URDW,Urdorf Weihermatt,47.38096998,8.430342513
KGO,Küsnacht Goldbach,47.32685671,8.575964187
BURH,Büchel bei Rüthi (Rheintal),47.2859415,9.541951797
HURO,Hürlistein Ost,47.42163609,8.669530359
HUER,Hürlistein (Abzw),47.42245096,8.663430032
CFES,La Chaux-de-Fonds-Est,47.103486,6.837175998
SGGB,St. Gallen GB,47.41918725,9.364662854
ZLOG,Zürich Lochergut (Abzw),47.37668633,8.51864264
RUHO,Rudolfstetten Hofacker,47.36466872,8.376955987
SCN,Schalunen,47.11016,7.524170001
BGBI,Bibenlos-Sonnenhof,47.35379141,8.350277982
MIBN,Muri bei Bern,46.93141,7.486410001
CHRI,Chriesbach (Abzw),47.40427822,8.613488595
BNSH,Bern Steigerhubel (Abzw),46.94709015,7.410581709
BNWD,Bern Wankdorf,46.96782577,7.465477801
GASH,"Gampel, Schulhaus",46.31516598,7.741756159
ZLEE,Zürich Lettentunnel Ende,47.36767738,8.547916104
BZS,Bischofszell Stadt,47.49214091,9.241478562
VERN,Vernayaz,46.13854601,7.038358586
KE,Kemptthal,47.45283885,8.705586248
ANTX,"Andeer, Tgavugl",46.60482507,9.427525397
REUS,Les Reussilles,47.22433844,7.083135174
SZLT,"Schwyz, Lützelmatt",47.02249953,8.645036441
HGGS,Horgen Güterschuppen,47.25706608,8.596913997
DORF,Dorfnest (Abzw),47.44337803,8.609569804
OFSK,"Oftringen, Schulhaus/Kirche",47.31171382,7.929724794
ZHDW,Zürich Hardbrücke West (Spw),47.38900813,8.503689671
DAYN,Le Day Nord (bif),46.71849769,6.400062367
STKV,Steckborn Ausweiche (Dsta),47.66302852,8.978768029
MXMT,Montreux MVR-mtgn,46.43586,6.912649994
VVCE,Vevey [voie 6-7],46.46291234,6.844283584
POFA,Pont de Fayot,46.21902,6.903730005
ZFFL,Frauenfeld leere Schnitzel,47.55419026,8.875195801
RTRG,Rothrist Grüth,47.31073928,7.881550565
CHAR,Charrat-Fully,46.12681288,7.126476598
RTAL,Rosental,47.4923423,8.975152342
RTH,Rüthi SG,47.28673909,9.536056864
USAX,Untersax,46.83386,9.582430002
ZEBF,"Zell LU, Bahnhof",47.13659959,7.926248599
AIGX,Aigle [voie 11-16],46.31634261,6.964099417
SGAA,"St. Gallen, Arena",47.40751822,9.305152601
FMS,Flums,47.09661665,9.347929248
GIL,Gilamont,46.47142,6.852629995
FFZF,Frauenfeld Zuckerfabrik,47.55588995,8.875228493
NEGW,Neugut West bei DUE (Abzw),47.40316738,8.602141802
BGIS,Bremgarten Isenlauf,47.34606532,8.341525587
CVXX,Les Convers,47.08405605,6.864652363
TW,Thalwil,47.29598141,8.564769449
RUES,Rüschlikon,47.30713187,8.555162655
ZLOW,Zürich HB Löwenstrasse West,47.37911232,8.534543016
OFRB,"Oftringen, Ruhbank",47.29618702,7.936510109
LANT,Lantig (B),47.51861,8.695339995
GAKA,"Susten, Kreuzung Agarn",46.30059522,7.658817561
EVOV,"Les Evouettes, village",46.36415495,6.875812713
BUES,Bütschwil Süd,47.35822862,9.07547691
LKB,"Leukerbad, Busterminal",46.37978813,7.626408956
SAEH,"Sattel, Ecce Homo",47.06899774,8.616681913
NWAL,Niederwald,46.43533102,8.190214149
FUAB,"Fürgangen, Abzw. Bahnhof",46.41074033,8.151182325
FRNT,Franziskustunnel,46.9785185,8.611108639
ALBS,Albistunnel Südportal,47.21330691,8.543369327
TROI,Troistorrents,46.22829,6.915810003
WLKT,Wald Kühweid-Tunnel,47.28031404,8.917504254
SZPO,"Schwyz, Zentrum",47.02120081,8.651321574
RTRS,"Rothrist, Sennhof-Dörfli",47.3055837,7.888965977
BURB,Buchs SG RB,47.17571415,9.477027613
RTBF,"Rothrist, Bahnhof",47.30614573,7.878497471
SAPO,"Sargans, Post",47.04729966,9.441149915
KBGR,Koblenz Grenze,47.60914553,8.234261896
LSNO,Lausen Ost,47.46992169,7.768083152
SELF,Klosters Selfranga,46.85579,9.884249997
SMAT,Tunnel de St-Maurice,46.22141223,7.00246165
SJET,Tunnel de St.Jean,46.20542276,6.124334516
WA,Wattwil,47.29947726,9.086482372
GRS,Grandson,46.80628338,6.64194374
MUI,Le Muids,46.45429999,6.215429994
TEFU,Territet (funi),46.42683102,6.923438814
BTW,Bettwiesen,47.49862133,9.020779633
CARO,Carolina,46.67036999,10.05987
VICG,Villeneuve VD (lac),46.39861691,6.924708495
BUWB,"Buchs SG, Werdenberg",47.16854901,9.463606563
VASM,Valeyres-sous-Montagny,46.79682309,6.611339018
KIPT,Kipfen Ost,46.2045317,7.825206022
CHES,Cheseaux,46.58435,6.60596
VEGL,Vers-l'Eglise,46.35362999,7.134140001
STGR,St-Triphon-Gare,46.27821999,6.973719996
ZHOT,Zürich Hottingen (Spw),47.36808196,8.561866175
SBG,Sihlbrugg,47.23842793,8.577058943
ROBG,Roggwil-Berg,47.48559031,9.392022803
RITZ,Ritzingen,46.45701654,8.22339628
RTHI,"Rüthi (Rheintal), Industrie",47.30001053,9.546077696
RTHB,"Rüthi (Rheintal), Bahnhofstr.",47.28692765,9.532760646
SOOD,Sood-Oberleimbach,47.31962242,8.521519715
NFCH,Neue Forch,47.32581,8.637839993
ZUN,Zürich HB Nord,47.38435171,8.52347135
KBOD,Kalter Boden,46.04517032,7.767077113
FFBG,Frauenfeld FW Bahn Gleisende,47.55780674,8.896524659
SGSG,St. Gallen Betriebsgr. SGA/TB,47.42229255,9.368975035
SURM,"St. Urban, Birchmatt",47.22728461,7.840349325
GRAN,Les Granges (Orbe),46.72097097,6.541469727
TOUR,La Tour-de-Peilz,46.45545289,6.859532673
ROC,Roche VD,46.35869637,6.927052837
BLID,"Blickensdorf, Dorf",47.20187171,8.515071933
ABDO,"Abtwil SG, Dorf",47.42152343,9.316420816
SCNW,Schöftland Nordweg,47.31110728,8.051227413
WASH,"Wattwil, Schmidenbach",47.30797378,9.086315466
WABT,"Wattwil, Bunt",47.31400326,9.084292551
ETAU,"Ebnat, Au",47.26945819,9.115130431
SBSC,"Strengelbach, Schleipfen",47.27758854,7.921097973
GLFU,Glion (funi),46.43187018,6.92376814
COFU,Collonge (funi),46.4282797,6.923516089
GLAS,Gland sous-station,46.41450009,6.263363244
EPG,Eppenberg,47.38184419,8.019720639
RRBT,Rohrbachtunnel,46.69592238,8.594693776
SCHF,Schöftland,47.30587864,8.050016724
SGBS,"St. Gallen, Berneggstrasse",47.41989794,9.374582671
SHS,St. Gallen Schülerhaus,47.42500739,9.387420864
REN,Renens VD,46.53704247,6.578935338
SGMP,St. Gallen Marktplatz,47.42636248,9.376726989
LUMU,Lustmühle,47.40033604,9.359151155
HERO,Hersiwil Ost RL 06,47.16935687,7.636672782
OLBO,Olten Borntunnel Ost,47.32519546,7.894925395
ERZ2,Bern ERZ2,47.29255554,7.7160001
OFWH,"Oftringen, Wirtshüsli",47.30377339,7.931410507
OPIN,Oberbipp Industrie,47.2618705,7.668922965
OFOH,"Oftringen, Obristhof",47.31622426,7.922346286
GOMG,Göschenen Bahnhofplatz,46.66579,8.58834
HRIH,Hinteres Riedholz,47.23531999,7.584749996
RYUE,Rynächt Ueberholgleisanlage,46.84762,8.641089994
TNAO,Tunnel de Nanchau Ouest,46.72871512,6.442786216
SGGU,St. Gallen Guggeien,47.45188385,9.398480957
MELS,Mels,47.05374626,9.417758272
WISB,"Wikon, Schlossberg",47.26232243,7.970680747
WIKK,"Wikon, Kreuzung",47.26361717,7.964906188
ECLC,Eclépens Ciment (embr),46.65609339,6.548623365
BRWW,Brittnau-Wikon West (Agl),47.25970616,7.958578609
BAV,Bavois,46.68767991,6.559334852
FIND,Findelbach,46.0096703,7.748854965
SEMB,Sembrancher,46.07693128,7.14583205
RMSS,Romanel sous-station,46.55603399,6.614167086
OLLO,Ollon VD,46.29682999,6.993100004
BU,Buchs SG,47.16841198,9.478636689
SGBL,"St. Gallen, Bleicheli",47.42181495,9.371855307
ASSE,L'Asse,46.40182,6.211749995
SGF,St. Gallen St. Fiden,47.43454038,9.393443802
TEAO,"Teufen AR, Abzw. Obertobel",47.39837647,9.411855929
LONB,Lonay B (bif),46.52480869,6.524339328
LACL,La Clef,47.1465316,6.984367702
UWPO,"Unterwasser, Post",47.19690854,9.308992877
PUIC,Puidoux-Chexbres Gare,46.49457744,6.766900879
LECR,Lécheires (bif),46.53478714,6.550877729
SZ,Sulz,47.55656213,8.090470368
TALH,Talhaus,47.45144,7.749769996
SCFH,"Schöftland, Holzikerstrasse",47.31178706,8.048343204
BLEI,"Bütschwil, Engi",47.36976704,9.077009887
SGKB,"St. Gallen, Kirche Bruggen",47.40914098,9.331490084
CHAU,La Chaudanne-Les Moulins,46.46605207,7.0967347
PRL,Prélionne,46.50946999,6.480270001
ZFFR,Frauenfeld Zuckerrüben,47.55418764,8.875203171
SPIS,St. Gallen Spisertor,47.42473119,9.379625084
CHF,Châteauneuf-Conthey,46.21610869,7.3051022
KAIO,Kaisten Ost (Abzw),47.55320834,8.045764317
VVVI,Vevey Vignerons,46.469083,6.852821734
JOR,Jor,46.45467,6.965120006
TFDL,Tunnel Fin-de-Lance,46.85263788,6.726795898
SIXF,Six-Fontaines,46.77422433,6.498768602
STAN,Stans,46.95839692,8.366580446
AVIO,Les Aviolats,46.35297,7.113160005
PLAS,Les Planches (Aigle),46.35534,7.055269997
RDMS,"Reiden, Mehlsecken",47.24554592,7.959127818
GBAL,Gland Ballastière,46.41865724,6.260661866
GLAO,Gland Ouest,46.41684337,6.265688729
INKX,Inkwil WolfachertunnelWestRL10,47.19654363,7.681416836
BORT,Born Tunnel OL-RTR,47.32571858,7.894559461
ZAF,Zürich Affoltern,47.42090895,8.508582558
MAEN,Männedorf,47.25342403,8.692346117
HEII,Heiden Gleisende,47.44550575,9.537064321
HINT,Hinteregg,47.30573,8.684339999
DIH,Dinhard,47.55334515,8.752980887
TLH,Thalheim-Altikon,47.56962135,8.757643236
LEBO,Les Bovets,46.35546,7.141639999
HERD,Herdtunnel,46.02917224,7.753333343
RBLO,RBL Ost,47.41524775,8.389979427
ZSTH,Zürich Stadelhofen,47.36660977,8.548489088
TVER,Tunnel de la Verrerie,47.26518085,7.356320352
FILD,Filderen (Agl),47.34062894,8.464576273
LTUN,Läufelfingen Hauensteintunnel,47.38076998,7.864877054
ROR,Rossriet (Spw),46.9979255,9.535423958
WANZ,Wanzwil (Abzw),47.19824499,7.699212948
KH,Krattighalde,46.6625624,7.739542149
OLBZ,Olten Betriebszentrale,47.3551941,7.907914794
MRW,Meiringen West,46.72838097,8.178742582
THFU,Thal Fuchsloch,47.47952345,9.558607807
LF,Läufelfingen,47.39213289,7.856231577
ORBE,Orbe,46.72440837,6.530143012
RILI,Ringlikon,47.36029839,8.477427706
KGD,Küngoldingen,47.30214151,7.941796671
BGOT,Bremgarten Obertor,47.35056777,8.343749327
GM,Granges-Marnand,46.75884492,6.894289729
STTR,St-Triphon Triage,46.28892574,6.96894587
ZOEN,Zürich Oerlikon Nord (Abzw),47.41576813,8.549047707
ZAU,Zürich Aussersihl (Abzw),47.37886214,8.520057196
TAOH,Tanklager Oberhasli,47.46202787,8.484005159
TAFR,Tanklager Frevlig,47.47961396,8.498680178
SAGS,Sargans Süd,47.04478851,9.446214849
WIT,Wittenbach,47.46284902,9.388548276
WRS,Wiler Süd,47.14883,7.554530004
WIN,Winkel am Zürichsee,47.29720785,8.598988309
ORD,Oberrieden,47.27967632,8.578460588
RUEM,Rümlang,47.45406561,8.532767323
MUBR,Mumenthal Brunnmatten,47.24026257,7.797086786
OF,Otelfingen,47.4549362,8.387532432
LIEN,"Lienz, Dorf",47.27721624,9.517016743
CIB,La Cibourg,47.122126,6.883663998
STET,Stettbach,47.39721541,8.596144779
UER,Uerikon,47.23586077,8.752625203
ZUWA,Zürich Wasserwerkstr 12 I-BU-O,47.38341944,8.540379509
GRFY,Grandfey (B),46.824113,7.166912405
BEV,Bever,46.54991,9.88847
DN,Deitingen,47.2182258,7.618913025
RTRF,"Rothrist, Flecken",47.30610049,7.903820649
INT,Intschi,46.76009087,8.650515215
SENG,Sengg (Verzw),46.60315349,7.926012279
SZHG,"Schwyz, Herrengasse",47.0221384,8.651132284
SAWE,Sandweid,46.61384,7.902980004
EGLU,Eglisau Unterwerk,47.57313329,8.51411772
AE,Aesch BL,47.46774466,7.60306821
KODT,Kohlendreiecktunnel,47.38175748,8.522082184
NEYS,Les Neys,46.23602,6.924779998
SIE,Sierre/Siders,46.29212156,7.532825556
FB,Feldbach,47.23920356,8.783497766
RUVI,"Rueras, Via Alpsu/Flurin",46.67588008,8.753871813
VISP,Villnachern Südportal,47.47110418,8.159830085
BUET,Bütschwil,47.35959125,9.075151064
SD,Saland,47.39421141,8.854221361
REPP,Reppischhof,47.38400176,8.396173316
BEFR,Bergfrieden,47.39746497,8.398961024
SBHW,"Strengelbach, Hardmattenweg",47.28222561,7.926374113
SBHD,"Strengelbach, Hard",47.2862849,7.92998026
MUER,Mürren BLM,46.56410552,7.897241734
TDT,La Tour-de-Trême Ronclina,46.60562,7.06144
GOTM,Gotthard Mitte,46.59870007,8.595291235
RCHG,Roches Grises,46.29376,7.061100003
RBLD,RBL Depot,47.41240021,8.397137159
SCWA,Schwaderloch,47.58628547,8.144307635
SGFW,St. Gallen St. Fiden West,47.43375975,9.391833495
SGAB,St. Gallen AB,47.42206894,9.368707486
REAB,"Reckingen, Abzw. Bahnhof",46.46947246,8.241934723
NWBF,"Niederwald, Bahnhof",46.43539104,8.189994614
VALM,Valmont,46.42855,6.929299995
SJ,St-Jean (bif),46.205553,6.127722541
LATT,Lattenbergtunnel,47.2413231,8.715309431
BUHL,Büel (Spw),46.50521241,7.675251068
OLO,Olten Ost (Abzw),47.35863371,7.925630431
EGGE,Eggenschwand (Spw),46.48128749,7.665903023
RYAB,Rynächt (Abzw),46.84340158,8.642901603
ZENT,Zürich Engetunnel,47.35889715,8.53106954
SGW,St. Gallen West (Abzw),47.41635532,9.359500991
UTB,Unterbäch (Bergstation),46.2848665,7.800715831
GEV,Genève-Eaux-Vives,46.20144541,6.166569588
EB,Eggerberg,46.3065463,7.881032719
NGWE,"Niedergesteln, Weiderli",46.31385877,7.780721297
DEN,Denges-Echandens,46.5291271,6.540505482
SEP,Le Sépey,46.36124,7.05279
JAMA,Jaman,46.44134,6.976790003
FLS,Flüelen (See),46.9033673,8.623921803
BROF,Broc-Fabrique,46.60541553,7.109339031
ZOET,Zürich Oerlikon Technikgebäude,47.4035794,8.53544382
COLS,Col-de-Soud,46.30494,7.069540001
DOTU,Dottikon Umspannanlage,47.36292268,8.249181986
ALD,Luzern Allmend/Messe,47.03506818,8.30323744
WWY,Winterthur Wylandbrücke (Vzw),47.49535026,8.719658958
SAER,"Sattel, Erli",47.0734764,8.628157174
BWBF,"Brittnau-Wikon, Bahnhof",47.262538,7.956914875
PTD,Pont-de-Drapel,46.31986,6.986520004
LTS,Lausanne-Triage Sud,46.52498249,6.53399425
SDY,Sendy-Sollard,46.44664,6.929070002
FLED,Flendruz,46.48208999,7.186070005
CLM,Chez-le-Maître,46.59773245,6.218613875
UIWA,Uitikon Waldegg,47.36592216,8.465921727
BLGK,Baldegg Kloster,47.18061603,8.280597543
GRIG,Grindelwald Grund,46.62264839,8.023328624
ALP,Alpiglen,46.6001049,8.001903077
VIPO,"Vionnaz, Village",46.31103524,6.899964655
ORS,Orsières,46.02803684,7.143617807
STLE,St-Légier-Gare,46.47053,6.871929995
BILT,Birmensdorf ZH Landikontunnel,47.34753674,8.466355653
CROT,Tunnel des Crosettes,47.09915337,6.856415303
LARO,"Langnau bei Reiden, Oberdorf",47.2283144,7.962538634
KERN,Kernenried (NBS),47.06880047,7.542107155
RIKW,Ritom centrale elettrica,46.51726427,8.675499663
LSTD,Lausanne TRIDEL,46.533504,6.645512246
GRIL,En Grillon (diag),46.47432899,6.778672711
ARNO,Les Arnoux,46.29131,6.996780003
BARB,La Barboleuse,46.28274999,7.070489998
PLAM,Plambuit,46.32734999,7.023969994
BAUM,La Baume,46.47901517,6.83243887
FSMS,Faido SMF Süd,46.49394697,8.814733553
RY,Rynächt,46.83587388,8.645333434
BHOF,Burghof,47.03200706,7.761132921
MURK,Murkart,47.53786696,8.915704474
LENG,Lengwil,47.62559776,9.190283165
STGD,"St. German, Dorfplatz",46.31220494,7.822460325
STBD,Staflerbord,46.64263836,8.61817676
LUED,Lüdem,47.5418818,8.902446168
PABA,"Parpan, Post",46.76015315,9.557650909
BOWN,Boniswil Nord (Km-Sprung),47.32100057,8.181900416
FFDF,Frauenfeld (Df),47.55816929,8.896551942
INKV,Inkwil (Verzw),47.19548969,7.664704355
OLTU,Olten Tunnel (Spw),47.37218492,7.91544477
BRWS,Brienzwiler West (Spw),46.74403194,8.079148816
CHFR,Le Châtelard-Frontière,46.05325533,6.949879044
RARI,"Raron, Industrie",46.30371308,7.808901528
HPT,Hauptwil,47.47686659,9.251591534
GONT,Gonten,47.32817889,9.347328501
WYAO,Wynau Aegertentunnel Ost,47.26007264,7.810114684
TEUF,Teufen AR,47.39044762,9.389796247
WRN,Wiler Nord,47.15761999,7.559319998
BLZE,Blausee Zement,46.53004383,7.674097651
ZUMD,"Zuchwil, Langfeld",47.20173124,7.572387087
UWST,"Unterwasser, Stofel",47.19634817,9.297489163
SAMO,Saanenmöser,46.51761,7.311720002
GRRS,"Grubenwald, Rest. Schlössli",46.57865884,7.382542754
BNBU,Bern Brückfeld 16 Gebäude Brü,46.95129786,7.426047963
KOEW,Köniz Waldegg (Agl),46.9361089,7.416186702
GUSS,Gunten (See),46.71247121,7.700314746
EMMA,Emmat,47.29238,8.701830006
BNWK,Bern Wankdorf Süd,46.96694588,7.465810292
ZKBG,Zollikerberg,47.34604999,8.603399996
FCH,Forch,47.32534,8.647969994
HG,Horgen,47.26148337,8.596916997
ZVIA,Zürich Viadukt (Abzw),47.38458301,8.520734261
SCAL,Schwalmenacker (Spw),47.50321089,8.736672726
BAAN,Baar Neufeld,47.18849295,8.517780783
BAA,Baar,47.19536404,8.523271537
POTR,Ponte Tresa,45.96999,8.860480006
BNDB,Bern Donnerbühl,46.9473192,7.410917216
BOCG,Bouveret (lac),46.38747441,6.85146837
BWS1,Bern Weyermannshaus Stellwerk1,46.94735515,7.410772709
DBTU,Dettenbergtunnel,47.51961484,8.567129526
BDWE,Bei den Weihern,47.22839,7.56659
FLUM,Flumenthal,47.23916,7.596680003
NBD,Niederbipp Dorf,47.26582,7.695140001
SUTZ,Sutz,47.10187,7.219419994
GRMA,Grünenmatt,47.00840034,7.723904233
ABZF,Aarberg Zuckerfabrik,47.04261025,7.277477878
RBTN,Riesbachtunnel II,47.35852004,8.559188155
ZMUS,Zürich HB Museumstrasse,47.37840821,8.540714164
BUNB,"Buchs SG, NTB/BZB",47.17454893,9.471856567
VUI,Vuisternens-devant-Romont,46.65273,6.929889998
VECH,Vechigen,46.94643564,7.556400809
BREI,Breitenacker (Spw),46.91907723,7.462463139
WBA,Weissenbach,46.60356559,7.374295809
PUIT,Tunnel de Puidoux (Cornallaz),46.4900487,6.760223335
BNWF,Bern Wylerfeld,46.96584045,7.458309294
PRN,Prangins,46.39600441,6.244980948
DAZG,Galleria Dazio,46.49135629,8.751424939
MGGG,Galleria Maggiagra,46.14405648,8.950719677
BOWT,Bodio Bahntechnikgebäude West,46.37264079,8.926318195
NIF,Niederfeld (Spw),47.52944554,7.99531677
GSGS,Galleria base Gottardo porta s,46.37190516,8.926155059
MAKW,Massaboden Kraftwerk,46.33250157,8.011690385
FFMA,Frauenfeld Marktplatz,47.55420159,8.898727348
RYSP,Rynächt (Spw),46.83831719,8.64519814
ALM,Al Motto (c bin),46.14504404,8.942779067
PARD,Pardorea (c bin),46.48897885,8.764748735
ZELL,Zell LU,47.13675416,7.92638197
RITK,"Richenthal, Kirche",47.2191195,7.946949091
SORM,Solothurn RM (Abzw),47.20366958,7.540700109
MENS,Mendrisio Sud (bif),45.86544957,8.974214608
FRVB,"Frutigen, Kreuzgasse",46.5885883,7.645737239
MULB,"Mülenen, Bahnhof",46.63820626,7.691284279
RSGO,Richtstollen Göschenen,46.6668594,8.588008035
RADO,"Raron, Dorf",46.30904103,7.799760161
RARB,"Raron, Bodmereia",46.30653759,7.825120319
REWE,Felsportal Furka Realp,46.59337912,8.501477572
VAM,Valmorea,45.84376,8.934810005
ROTO,Rotondo Ost (Verzw),46.55192579,8.485597511
FROB,Frutigen Ost BZ Alptransit,46.58787036,7.649714109
BLK5,Blindleistungskompensator 5,46.6811869,7.656364411
TSTO,Thunstetten Ost,47.21629736,7.748516662
WIMA,Witimatte,46.59433048,7.912791864
ROTE,Rotenegg,46.6558475,7.880317112
GBT,Gotthard Basistunnel,46.83599175,8.646482879
STSD,"Steg VS, Sand",46.3114799,7.747629288
VIAR,Villars-sur-Ollon,46.29626,7.056230005
ALL,Allaman,46.47575352,6.39969708
SGO,Le Solliat-La Golisse,46.61440648,6.239022952
SSMS,Sedrun SMF Süd,46.66058675,8.770697588
SCAT,Tunnel de Salanche,46.47484052,6.799594528
STKW,St. Katharinental West,47.68473601,8.721808357
ALME,Al Motto Est,46.1439968,8.949151861
SCBO,Sonceboz-Sombeval Ouest,47.19317944,7.15333727
TSSW,Tschamut West,46.65620286,8.70658033
KIM,Kirchmatt (Spw),47.48627418,8.070303621
DFNT,"Dietfurt, Neudietfurt",47.34590616,9.081637323
SNET,Schiltenneunetunnel,47.05068193,8.342884734
SFM,S-chanf Marathon,46.61976,9.99699
VIDS,Vispesand Süd,46.2842225,7.880778367
OR,Oron,46.57254561,6.837104144
PRLZ,Prélaz-sur-Blonay,46.46882,6.897929997
GW,Gwatt,46.72544488,7.620090308
OEFU,Oberentfelden Uerkenbrücke,47.36107494,8.045672903
KB,Koblenz,47.6003383,8.227049697
BUE,Bülach,47.52394992,8.536209199
HPXY,"Heiden, Post",47.44478419,9.534968543
PEN,Pensier,46.84161,7.135290001
BGOS,Brugg AG Ost,47.48404,8.223759995
PRES,Le Prese,46.29216,10.07785
SLT,Schwyz Stoosbahn (Talstation),46.9913495,8.673432038
HOLS,Holligen Schaltposten,46.94649096,7.408290658
DAY,Le Day,46.71748114,6.400937489
LGVC,Lugano Vedeggio CT,46.00771806,8.952344954
BOZT,Bözbergtunnel,47.46542157,8.116354217
CEF,Cery-Fleur-de-Lys,46.54458,6.605010005
OBZO,Oberzollikofen,46.99694999,7.461629996
RASU,Rabius-Surrein,46.73257,8.957500004
TEGN,Tegna,46.18601,8.742630004
HMT,Hubelmatt Tunnel,47.03678802,8.306189869
GRAL,Granges-Lens,46.26558044,7.458728244
WBB,Wabern bei Bern,46.92866278,7.445888755
MEY,Malley (B),46.52499894,6.607828163
SCAN,S-chanf,46.61194,9.981819997
BNEF,Bern Effingerstrasse 15,46.94568559,7.435191199
THSC,Thun Schadau,46.74704981,7.631029404
GON,Gontenschwil,47.28035419,8.144458655
ROU,Rougemont,46.48862,7.208960002
CRSU,Croy-Romainmôtier Sud,46.68507488,6.490221601
COMS,Les Combes,46.47747,7.171829996
PALZ,Château-d'Oex La Palaz,46.47589995,7.143834371
CHTV,Château-d'Hauteville,46.46847,6.865290004
CHOE,Château-d'Oex,46.47466999,7.131409999
STJ,Morges-St-Jean,46.51819536,6.508044033
LZDC,Luzern Depot Ceres,47.05003573,8.308931059
HALN,Halten,46.54515551,7.375433501
LELX,Le Lussex,46.55688,6.60091
LAM,Lamone-Cadempino,46.03971862,8.932125023
SGFT,"St. Gallen, Friedberg",47.41424471,9.35697405
HET,Hettlingen,47.54544145,8.694834153
DEFR,"Derendingen, Freiheit",47.19999293,7.595728845
TUE,Tüscherz,47.11500775,7.197318365
LUAP,Lüderenalp,47.00231443,7.826242661
RINS,Ringgenberg (See),46.70138371,7.898484986
SOBT,Solothurn Baseltor,47.20999,7.541900004
STEB,Stechelberg (Schilthornbahn),46.55515464,7.901717016
IMHO,Im Holz,47.23092079,7.474794878
SAC01,Schaltanlagencontainer 01,46.97506786,7.192797498
BEBG,Beatenberg,46.69059779,7.765285367
BDHB,"Burgdorf, Hallenbad",47.05549199,7.630370649
KLUS,Klus,47.30426355,7.693792936
KAPO,"Kaltacker, Ramisberg",47.0775174,7.671280524
LSS,Leissigen,46.65510561,7.77501587
NV,La Neuveville,47.06283279,7.095232412
HETH,"Heimisbach, Thal",47.01934598,7.776634044
LECH,Léchelles,46.82845973,7.011627005
TSBS,"Trubschachen, Bahnhofstrasse",46.92394447,7.847893893
FER,La Ferrière,47.14276999,6.894371999
PIA,Pianotondo (c bin),46.4207996,8.860945452
KICT,Kirchbergtunnel,46.70750853,8.601899554
MB,Malleray-Bévilard,47.23871419,7.275946267
INBF,"Inkwil, Bahnhof",47.19684979,7.672536915
HETU,Hersiwiltunnel NBS,47.16935688,7.636672782
EIGE,Eigerwand,46.58132221,8.0036125
MDFU,Umrichterwerk Mendrisio,45.8657686,8.973115664
PIE,Pieterlen,47.17144115,7.340193538
MENU,Mendrisio centr.commutaz.frequ,45.86578893,8.972918731
EST,Estavayer-le-Lac,46.84449885,6.842967233
FKWG,Gösgen Flusskraftwerk,47.36897587,7.979462807
MTR,Matran,46.7889384,7.096328594
WAKI,"Wasen i.E., Kirche",47.04340953,7.796905304
LFG,Laufenburg,47.55976842,8.061296133
SUPO,"Sumiswald, Post",47.02809982,7.743906565
ETBF,"Ermatingen, Bahnhof",47.66988838,9.085597636
NY,Nyon,46.38441897,6.235966131
GABX,"Grengiols, Abzw. Bahnhof",46.37572831,8.092885016
LENI,Les Nicolets,46.35446,7.11954
ACLA,Acla da Fontauna,46.69717382,8.84579085
GTS,Gütsch (Abzw),47.05160952,8.297089549
YVE,Yverdon-les-Bains TRAVYS,46.78151544,6.640875587
EPAC,"Epalinges, Croisettes",46.54309599,6.661546828
FSMF,Faido SMF,46.49783724,8.810627944
STEK,Steinlekehr,46.65584483,8.582240796
LDS,Landschlacht,47.62889136,9.246948724
BEVI,Bévieux,46.25899,7.030880005
OND,Ondallaz-L'Alliaz,46.47316,6.913960001
KRBF,"Kreuzlingen, Bahnhof",47.65234741,9.169683577
FFPP,Frauenfeld Paketpost,47.57130047,8.921424638
GLA,Gland,46.41998647,6.269139834
TBMI,"Trub, Miescheli",46.92958183,7.858599159
BAN,Bannwil,47.24438,7.740360002
NAET,Nätschen,46.64219641,8.609600183
BEDS,Bedretto Portal Südost,46.49765224,8.494905531
CAUN,Trun Campliun Barriere,46.73991,8.976420001
BEXT,Bex place de la gare,46.25083267,7.001265619
BDSP,"Burgdorf, Spital",47.04785923,7.622381748
ROGB,Roggwil Brunnmatten,47.25159298,7.814956816
WSAU,Willisau,47.12272068,7.99671805
BONI,Boniswil,47.31503874,8.184560549
VTE,Villette VD,46.49542482,6.707377299
CHBP,Chur Arosabahn,46.85343632,9.529754565
DEPS,Chur Depot Sand,46.84474607,9.537877878
SNIC,S. Nicolao,45.88637993,8.988878074
EPA,La Tour-de-Trême Parqueterie,46.60454,7.070989996
BICK,Bickigen (B),47.0606,7.641940001
BIAD,Biasca binario di sorpasso,46.35561725,8.968928524
LSBI,Lausanne (bif),46.52087641,6.61603709
GSBB,Givisiez SBB,46.81659402,7.125360342
ZSEB,Zürich Seebach,47.41875005,8.544660216
BIUW,Biel/Bienne Unterwerk,47.13029119,7.258193281
GE,Genève,46.2102129,6.142451595
WIBA,Wildbach (See),46.7552124,8.008534721
ILLA,"Illarsaz, village",46.31133559,6.927820461
LAUT,Lauterbrunnen,46.59843,7.908090002
GMRB,"Grünenmatt, Ramisberg",47.00474457,7.735082317
SWBR,Schweinbrunnen,47.09461297,7.809970659
MEAP,Mettlenalp (Napf),46.99370928,7.941412087
OFSH,"Oberfrittenbach, Schulhaus",46.95804241,7.783133411
EPEX,"Ecublens VD, Epenex",46.53771726,6.573582382
MAU,Menznau,47.08342724,8.040887385
PREG,Galleria Precassino,46.1445363,8.953852522
OABS,Oberried am Brienzersee (See),46.73656776,7.962739617
IP,Ipsach,47.11737,7.235479994
CASE,Les Cases,46.45592,6.997710006
WW,"Witterswil, Station",47.48739999,7.522220001
EBIS,Erlenbach im Simmental,46.65909178,7.555235196
LZFL,Luzern Fluhmühle,47.05812901,8.28522391
LENO,Lengnau Ost (Abzw),47.18093254,7.370439672
LZHE,Luzern Heimbach,47.04756507,8.298967909
LDT,Luzern Dreilindentunnel (Spw),47.05607378,8.313399035
BINM,"Biel/Bienne, Neumarkt/Marché-N",47.14082705,7.247131612
SIHF,"Signau, Hof",46.92262617,7.728459822
CHIZ,La Chiésaz,46.46951,6.88213
BELN,Bellinzona Nord (bif),46.21238,9.040050001
UMLR,Umler,46.64595,7.875949996
MELB,"Gümligen, Melchenbühl (Tram)",46.93492,7.498010002
BANW,Bannwald,46.58362629,7.933769185
LGPC,Lugano Paradiso (c bin),45.98911378,8.950949719
GERO,Gerolfingen,47.07498,7.201250005
SAME,Samedan,46.53376,9.873630004
BAU,Baulmes,46.78874869,6.524281779
CHW,Chur West (Gleisende),46.85061106,9.516474606
RABF,"Raron, Bahnhof",46.30608652,7.800986685
MOSM,Mendrisio S. Martino,45.8772202,8.98309272
SOZB,"Solothurn, Zentralbibliothek",47.21021855,7.529759475
GIOC,Giornico (c bin),46.40697945,8.869187641
HDK,Hendschiken,47.38943108,8.207388699
MACC,"Martigny-Combe, Chalet Forêt",46.06083729,7.008981194
BGG,Brügg BE,47.12363953,7.278221991
STIZ,"Steg VS, Industriezone",46.31155362,7.75353633
LOET,Lötschen (Abzw),46.34363838,7.785471833
SOPP,"Solothurn, Postplatz",47.20589662,7.535322065
OFBI,"Oberfrittenbach, Buuchi",46.96610855,7.789925825
TSHL,"Trubschachen, Hasenlee",46.92302066,7.839484034
LNBP,"Langnau i.E., Bärenplatz",46.94210662,7.784857087
APPL,Apples,46.55087999,6.423580001
BUEO,Bützberg Ost (Agl),47.21257654,7.74487427
EITS,Einigen (See),46.70975575,7.647194306
NEUH,Neuhaus (Unterseen) (See),46.67832506,7.815817763
TS,Tunnelstation Lötschberg (Spw),46.44000817,7.715802867
GOR,Gorgier-St-Aubin,46.89907615,6.781025966
WWAL,Winterthur Wallrüti,47.51672166,8.760882167
ROFM,"Röthenbach i.E., Feldmatt",46.85864543,7.747970202
BRWE,"Bronschhofen, Würe",47.47955299,9.034678818
SGRH,"St. Gallen, Ruckhalde",47.41522546,9.36021701
VAUS,Vaulruz-Sud,46.61921,6.989970001
ALBE,Albeuve,46.51793,7.055420003
RENB,Renens VD Est (bif),46.53325563,6.587072633
ERHD,"Eriswil, Hinterdorf",47.07362919,7.856684563
LNAL,"Langnau i.E., Oberfeldstrasse",46.94191744,7.787916095
TREY,Trey,46.7799571,6.916250945
SOGI,"Solothurn, Gibelinstrasse",47.2104372,7.526143073
HDC,Haut-de-Caux,46.43437,6.947949995
INTT,Intschitunnel,46.76131739,8.655308062
PAST,Tunnel de Pasquart,47.13803087,7.239013503
HECK,Hagneck,47.05828,7.188070004
VZ,Villaz-St-Pierre,46.72058041,6.960642881
KIAO,Kirchberg BE Emmenquerung Ost,47.09653419,7.574655145
BOEM,"Bouveret, école des Missions",46.38745193,6.845436604
SPDO,"Schüpbach, Dorf",46.92794414,7.734817351
WRSG,"Wangenried, Sägerei",47.21609177,7.662297376
LIZI,Littau Littauerboden,47.06213166,8.265514617
ZUOZ,Zuoz,46.59995,9.961460006
WATA,"Walliswil b. Wangen, Tal",47.22667325,7.686900867
LSSB,Lausanne-Sébeillon,46.52427469,6.611029365
WASI,"Walliswil b. Wangen, Seilerei",47.22932457,7.675042192
EGSI,"Eggiwil, Schwelli",46.8808708,7.789357206
AEGA,"Aeschau, Gärtnerei",46.90528195,7.762583516
WOES,Wöschnau SBB,47.38573788,8.029026085
TREI,Treib,46.98739451,8.58562745
LOM,Lommiswil,47.21856496,7.469518306
SOO,Solothurn Ost,47.20670889,7.531944582
BOPSS,Bodio Schutzstrecke,46.39368754,8.88935413
LTHL,Langenthaltunnel West,47.21026294,7.751464956
BSEW,"Buchs SG, EW",47.16525468,9.472848975
BRTB,Brüttenertunnel Ber Bassersdor,47.43655011,8.643402527
POSS,Les Posses,46.27117,7.050890003
GOSW,Goppenstein Lötschberg (Spw),46.37894751,7.746821184
ESL,Eschlikon TG,47.46149106,8.958536202
EEKX,"Eyholz, Einkaufszentren Riti",46.29599365,7.915164526
LO,Locarno,46.17242019,8.801360899
OFKP,"Oftringen, Kreuzplatz",47.31243554,7.920672035
OFBS,"Oftringen, Baslerstrasse",47.3140648,7.918213513
LUES,Lüscherz,47.04803,7.177350005
FSTS,Faulensee (See),46.67599579,7.703575717
IWTS,Interlaken West (See),46.68220744,7.850730874
BOMO,Bossy Moulins (embr),46.82329622,6.971128894
KOST,"Koppigen, Sternen",47.13261894,7.604336942
ANBF,"Andermatt, Bahnhof",46.6371326,8.594468053
WAIE,Wasen i.E.,47.04341586,7.791364139
HRMG,Hermitage,47.04252294,8.349708547
TBRI,"Trub, Ried",46.9496655,7.890150886
LNMS,"Langnau i.E., Marktstrasse",46.94099233,7.784482177
EMSW,Ems Werk,46.82863999,9.430389996
OFST,"Oberfrittenbach, Stock",46.96200037,7.786101862
GOKP,"Gohl, Dorf",46.95409971,7.807201428
ZREH,"Zürich, Rehalp",47.35102728,8.582978957
PLCH,Montreux-Les Planches,46.4331,6.917560005
PRAL,Les Pralies,46.45118,6.126870004
GIVR,La Givrine,46.45459999,6.11144
WLUW,Wanzwil Unterwerk,47.19725337,7.694313222
LUE,Lüsslingen,47.19250784,7.496600752
FACE,Faido cunicolo di acc. est,46.50251476,8.806274971
RAES,"Räfis, Schulhaus",47.14858735,9.483689798
HILS,Hilterfingen (See),46.73509515,7.657326972
WH,Wolhusen,47.05548793,8.079754105
SAD,S. Antonino (dira),46.16131981,8.97630379
STBW,"St. Gallen, Bernhardswies",47.40907169,9.341732193
CBT,Ceneri Basistunnel,46.15616353,8.985978907
RURK,Rüdlen (Km-Sprung),46.61473028,7.67649318
RDBF,"Reiden, Bahnhof",47.24149785,7.96908678
GOOG,"Gohl, Obeningohl",46.96878821,7.818471552
BASN,"Bärau, Schärischachen",46.9242403,7.819457163
BABA,"Bärau, Bahnübergang",46.92690548,7.81321283
LZSB,Seeburg,47.04566589,8.344721572
BOHE,"Bollodingen, Hegen",47.17246186,7.707029542
LNF,Lerchenfeld,46.76755278,7.605783428
CHSD,Châtel-St-Denis,46.52780592,6.895795756
BIOM,Bioggio Molinazzo,46.01236,8.914010002
GRYO,Gryon,46.27358,7.059710003
TREM,Le Tremblex,46.43604,6.932749998
MMBS,"Mammern, Bahnhofstrasse",47.64497216,8.913633886
LERV,Lerchenbühl (Verzw),47.0590248,7.611255362
WAU,Wauwil,47.18385897,8.019020059
ZERG,Zermatt GGB,46.02394458,7.748671708
RISS,Rivaz-St-Saphorin (lac),46.47360024,6.784036342
PUCG,Pully (lac),46.50539952,6.661300422
SUKI,"Subingen, Kirche",47.19484907,7.619585504
TASS,Täschsand,46.05542642,7.773187295
OFGR,"Oberfrittenbach, Grebli",46.97035793,7.794592327
LNKP,"Langnau i.E., Knieplatz",46.94122273,7.791536528
SHIE,Schafhausen i.E.,46.99446739,7.656756638
TRI,Trimbach,47.36605219,7.904285359
DRBF,"Därstetten, Bahnhof",46.65889128,7.494229204
ETIE,Etiez,46.08294816,7.160582137
MOUI,"Chavannes-R., UNIL-Mouline",46.52499212,6.578895152
LTCG,Lutry (lac),46.50122613,6.684054488
AIGT,Aigle-Château,46.31687171,6.978921361
ARCY,Archy (bif),46.54223339,6.558792112
SONZ,Sonzier,46.43905,6.921209997
RONE,"Roggliswil, Netzelen",47.20936643,7.882229925
ROHO,Brienzer Rothorn,46.78739874,8.038446804
BRAD,Brandegg,46.60918043,8.01117403
